uid,name,vendor_name,address,latitude,longitude,city,country,open,close,logo_url,staff,payment_modes,contact_numbers,station_type,postal_code,zone,0,available,capacity,cost_per_unit,power_type,total,type,vehicle_type
STATIC12,GensolCharge Pvt. Ltd.,GensolCharge Pvt. Ltd.,"NDSE Grid, BRPL South Extension",28.568238,77.219666,Delhi,India,00:00:00,23:59:59,,Unstaffed,"Card, E-Wallet, UPI","[""7042406677""]",charging,110001,central-delhi,,NA,15 kW,NA,DC,2.0,BEVC DC 001,['4W']
STATIC14,REIL,REIL,Scada office kalka ji,28.541995,77.260583,Delhi,India,00:00:00,23:59:59,,Unstaffed,E-Wallet,"[""11399999228""]",charging,110001,central-delhi,,NA,3.3 kW,NA,AC,3.0,BEVC AC 001,"['2W', '3W', '4W']"
STATIC15,REIL,REIL,Ashram Chowk Mathura Road,28.571189,77.259806,Delhi,India,00:00:00,23:59:59,,Unstaffed,E-Wallet,"[""9811024398""]",charging,110001,central-delhi,,NA,15 kW,NA,DC,2.0,BEVC DC 001,['4W']
STATIC16,REIL,REIL,Nizamuddin Railway station,28.588991,77.25324,Delhi,India,00:00:00,23:59:59,,Unstaffed,Cash/E-Wallet,"[""9717632007""]",charging,110001,central-delhi,,NA,15 kW,NA,DC,4.0,BEVC DC 001,['4W']
STATIC17,BluSmart,BluSmart,"BSES Bhawan, Nehru Place, New Delhi 110048",28.549427,77.254636,Delhi,India,00:00:00,23:59:59,,Unstaffed,Cash/E-Wallet,"[""7042406677""]",charging,110001,central-delhi,,NA,15 kW,NA,DC,1.0,BEVC DC 001,['4W']
STATIC18,Smart E,Smart E,Uttam Nagar East metro station,28.626722,77.065972,Delhi,India,00:00:00,23:59:59,,Staffed,E-Wallet,"[""9999875122""]",charging,110001,central-delhi,,NA,3.3 kW,NA,AC,20.0,BEVC AC 001,"['2W', '3W', '4W']"
STATIC19,EEE,EEE,"Mukteshwar dham Andheriya bagh,mehrauli",28.510291,77.171653,Delhi,India,00:00:00,23:59:59,,Unstaffed,Cash/E-Wallet,"[""9906090044""]",charging,110001,central-delhi,,NA,15 kW,NA,DC,7.0,BEVC DC 001,['4W']
STATIC19,EEE,EEE,"Mukteshwar dham Andheriya bagh,mehrauli",28.510291,77.171653,Delhi,India,00:00:00,23:59:59,,Unstaffed,Cash/E-Wallet,"[""9906090044""]",charging,110001,central-delhi,,NA,3.3 kW,NA,AC,12.0,BEVC AC 001,"['2W', '3W', '4W']"
STATIC20,BluSmart,BluSmart,"Plot No. 24, Behind Fun & Food Village, Kapashera Estate, Kapashera New Delhi 110097",28.5224856,77.0892318,Delhi,India,00:00:00,23:59:59,,Staffed,Cash/E-Wallet,"[""9811067012""]",charging,110001,central-delhi,,NA,3.3 kW,NA,AC,40.0,BEVC AC 001,"['2W', '3W', '4W']"
STATIC20,BluSmart,BluSmart,"Plot No. 24, Behind Fun & Food Village, Kapashera Estate, Kapashera New Delhi 110097",28.5224856,77.0892318,Delhi,India,00:00:00,23:59:59,,Staffed,Cash/E-Wallet,"[""9811067012""]",charging,110001,central-delhi,,NA,30 kW,NA,DC,13.0,BEVC DC 001,['4W']
STATIC28,HPCL,HPCL,"HP Pump, ground floor, Mahipal pur-Gurgoan road NH-8, Mahipal pur, delhi 110037",28.544785,77.121449,Delhi,India,00:00:00,23:59:59,,Staffed,E-Wallet,[],charging,110001,central-delhi,,NA,15 kW,NA,DC,1.0,BEVC DC 001,['4W']
STATIC29,BluSmart,BluSmart,"Multi Level Car Parking, Level 2 , Indira Gandhi International Airport , New Delhi",28.55476,77.08831,Delhi,India,00:00:00,23:59:59,,Staffed,E-Wallet,[],charging,110001,central-delhi,,NA,3.3 kW,NA,AC,7.0,BEVC AC 001,"['2W', '3W', '4W']"
STATIC29,BluSmart,BluSmart,"Multi Level Car Parking, Level 2 , Indira Gandhi International Airport , New Delhi",28.55476,77.08831,Delhi,India,00:00:00,23:59:59,,Staffed,E-Wallet,[],charging,110001,central-delhi,,NA,20 kW,NA,DC,2.0,BEVC DC 001,['4W']
STATIC30,BSES,BSES,"New Delhi Railway Station, Pahar Ganj",28.6453,77.2126,Delhi,India,00:00:00,23:59:59,,Unstaffed,E-wallet,[],charging,110001,central-delhi,,NA,15 kW,NA,DC,2.0,BEVC DC 001,['4W']
STATIC31,BSES,BSES,"New Delhi Railway Station, Ajmeri Gate",28.6427,77.2247,Delhi,India,00:00:00,23:59:59,,Unstaffed,E-wallet,[],charging,110001,central-delhi,,NA,15 kW,NA,DC,4.0,BEVC DC 001,['4W']
STATIC32,BSES,BSES,Anand Vihar Railway Station,28.6471,77.3158,Delhi,India,00:00:00,23:59:59,,Unstaffed,E-wallet,[],charging,110001,central-delhi,,NA,15 kW,NA,DC,4.0,BEVC DC 001,['4W']
STATIC33,BSES,BSES,"KHOSLA CAPITAL SOLUTIONS (P) LTD, Cross River Mall",28.6573,77.3024,Delhi,India,10:00:00,20:00:00,,Staffed,E-wallet,[],charging,110001,central-delhi,,NA,15 kW,NA,DC,1.0,BEVC DC 001,['4W']
STATIC33,BSES,BSES,"KHOSLA CAPITAL SOLUTIONS (P) LTD, Cross River Mall",28.6573,77.3024,Delhi,India,10:00:00,20:00:00,,Staffed,E-wallet,[],charging,110001,central-delhi,,NA,22 kW,NA,AC,4.0,AC Type 2,['4W']
STATIC34,BSES,BSES,"Shakti Kiran Building, Karkardooma",28.6553,77.2979,Delhi,India,00:00:00,23:59:59,,Unstaffed,E-wallet,[],charging,110001,central-delhi,,NA,15 kW,NA,DC,1.0,BEVC DC 001,['4W']
STATIC35,BSES,BSES,"Shakti Kiran Building, Karkardooma",28.6553,77.2979,Delhi,India,00:00:00,23:59:59,,Unstaffed,E-wallet,[],charging,110001,central-delhi,,NA,22 kW,NA,AC,1.0,AC Type 2,['4W']
STATIC36,BSES,BSES,"Shakti Kiran Building, CBD-II Grid, Karkardooma",28.6553,77.2979,Delhi,India,00:00:00,23:59:59,,Unstaffed,E-wallet,[],charging,110001,central-delhi,,NA,3.3 kW,NA,AC,3.0,BEVC AC 001,"['2W', '3W', '4W']"
STATIC37,BSES,BSES,"Shakti Kiran Building, MTNL CBD Grid, Karkardooma",28.6553,77.2979,Delhi,India,00:00:00,23:59:59,,Unstaffed,E-wallet,[],charging,110001,central-delhi,,NA,3.3 kW,NA,AC,3.0,BEVC AC 001,"['2W', '3W', '4W']"
STATIC38,PlugNgo,PlugNgo,"Plug & Go, Near Swati Appt, Narwana Road, Patparganj",28.6215,77.2935,Delhi,India,08:00:00,20:00:00,,Staffed,Online through App (e-wallets),[],charging,110001,central-delhi,,NA,15 kW,NA,DC,2.0,BEVC DC 001,['4W']
STATIC38,PlugNgo,PlugNgo,"Plug & Go, Near Swati Appt, Narwana Road, Patparganj",28.6215,77.2935,Delhi,India,08:00:00,20:00:00,,Staffed,Online through App (e-wallets),[],charging,110001,central-delhi,,NA,142 kW,NA,DC,1.0,CCS2/CHADEMO/TYPE 2 AC,['4W']
STATIC39,TPDDL,TPDDL,"Block B, No. 57, Rama Road, Motinagar",28.6605745,77.1532531,Delhi,India,00:00:00,23:59:59,,Unstaffed,"Card, E-Wallet, UPI","[""7024474113""]",charging,110001,central-delhi,,NA,50 kW,NA,DC,1.0,CCS/ CHAdeMO,['4W']
STATIC40,TPDDL,TPDDL,KINGSWAY CAMP,28.6965847,77.2116941,Delhi,India,00:00:00,23:59:59,,Unstaffed,"Card, E-Wallet, UPI","[""7024474113""]",charging,110001,central-delhi,,NA,15 kW,NA,DC,1.0,BEVC DC 001,['4W']
EESL359,EESL,EESL,"NDMC Parking, Khan Market, New Delhi, 110003",28.600324,77.226883,New Delhi,India,00:00:00,23:59:59,https://ev.delhitransport.in/static/logo/eesl.png,Unstaffed,"E-wallet, cash","[""7906001402""]",charging,110003,central-delhi,,1,15 kW,₹10 per unit,DC,2,DC-001,['4W']
EESL361,EESL,EESL,"NDMC Parking, Prithviraj Market, Prithviraj Ln, New Delhi, Delhi- 110003 ",28.600735,77.226277,New Delhi,India,00:00:00,23:59:59,https://ev.delhitransport.in/static/logo/eesl.png,Unstaffed,"E-wallet, cash","[""7906001402""]",charging,110003,central-delhi,,1,15 kW,₹10 per unit,DC,1,DC-001,['4W']
EESL363,EESL,EESL,"NDMC Parking, Outside RWA Park, Jor Bagh Market,  Jor Bagh Colony Road, New Delhi- 110003 ",28.588117,77.217564,New Delhi,India,00:00:00,23:59:59,https://ev.delhitransport.in/static/logo/eesl.png,Unstaffed,"E-wallet, cash","[""7906001402""]",charging,110003,central-delhi,,1,15 kW,₹10 per unit,DC,1,DC-001,['4W']
EESL365,EESL,EESL,"NDMC Parking, Opposite Goel Opticals, Khanna Market, Aliganj, Lodhi Colony, New Delhi- 110003 ",28.580532,77.221048,New Delhi,India,00:00:00,23:59:59,https://ev.delhitransport.in/static/logo/eesl.png,Unstaffed,"E-wallet, cash","[""7906001402""]",charging,110003,central-delhi,,1,15 kW,₹10 per unit,DC,1,DC-001,['4W']
EESL367,EESL,EESL,"NDMC Parking, Opposite Dory Pharmacy, Khanna Market, Aliganj, Lodhi Colony, New Delhi- 110003 ",28.584365,77.22054,New Delhi,India,00:00:00,23:59:59,https://ev.delhitransport.in/static/logo/eesl.png,Unstaffed,"E-wallet, cash","[""7906001402""]",charging,110003,central-delhi,,1,15 kW,₹10 per unit,DC,1,DC-001,['4W']
EESL369,EESL,EESL,"NDMC Parking, Sarojini Nagar Market, Sarojini Nagar, New Delhi- 110023 ",28.577259,77.19692,New Delhi,India,00:00:00,23:59:59,https://ev.delhitransport.in/static/logo/eesl.png,Unstaffed,"E-wallet, cash","[""7906001402""]",charging,110023,south-west-delhi,,0,15 kW,₹10 per unit,DC,1,DC-001,['4W']
EESL371,EESL,EESL,"NDMC Parking, Near Bikanervala, Yashwant Place, Chanakyapuri, New Delhi- 110021 ",28.585298,77.191008,New Delhi,India,00:00:00,23:59:59,https://ev.delhitransport.in/static/logo/eesl.png,Unstaffed,"E-wallet, cash","[""7906001402""]",charging,110021,south-west-delhi,,1,15 kW,₹10 per unit,DC,1,DC-001,['4W']
EESL373,EESL,EESL,"NDMC Parking, Dharma Marg, Block Y, Diplomatic Enclave, Malcha Market, New Delhi- 110021 ",28.601809,77.186432,New Delhi,India,00:00:00,23:59:59,https://ev.delhitransport.in/static/logo/eesl.png,Unstaffed,"E-wallet, cash","[""7906001402""]",charging,110021,south-west-delhi,,2,15 kW,₹10 per unit,DC,2,DC-001,['4W']
EESL375,EESL,EESL,"NDMC Parking, Outside Devinder Collections, Shankar Market, Connaught Place,  New Delhi- 110001 ",28.633733,77.22353,New Delhi,India,00:00:00,23:59:59,https://ev.delhitransport.in/static/logo/eesl.png,Unstaffed,"E-wallet, cash","[""7906001402""]",charging,110001,central-delhi,,1,15 kW,₹10 per unit,DC,1,DC-001,['4W']
EESL377,EESL,EESL,"NDMC Parking, Opposite HDFC Bank, M- Block,  Connaught Place, New Delhi- 110001 ",28.632973,77.222937,New Delhi,India,00:00:00,23:59:59,https://ev.delhitransport.in/static/logo/eesl.png,Unstaffed,"E-wallet, cash","[""7906001402""]",charging,110001,central-delhi,,0,15 kW,₹10 per unit,DC,1,DC-001,['4W']
EESL379,EESL,EESL,"NDMC Parking, Near NDMC Office,  Fire Brigade Lane, Barakhamba,  New Delhi- 110001 ",28.630256,77.225668,New Delhi,India,00:00:00,23:59:59,https://ev.delhitransport.in/static/logo/eesl.png,Unstaffed,"E-wallet, cash","[""7906001402""]",charging,110001,central-delhi,,1,15 kW,₹10 per unit,DC,1,DC-001,['4W']
EESL381,EESL,EESL,"NDMC Parking,  Opposite South Indian Bank, Block E,  RR6, Middle Circle, Connaught Place,  New Delhi- 110001",28.63363,77.221949,New Delhi,India,00:00:00,23:59:59,https://ev.delhitransport.in/static/logo/eesl.png,Unstaffed,"E-wallet, cash","[""7906001402""]",charging,110001,central-delhi,,1,15 kW,₹10 per unit,DC,1,DC-001,['4W']
EESL383,EESL,EESL,"NDMC Parking,  Outside Westend Vedi Tailors, Bock M, Middle Circle, Connaught Place,  New Delhi- 110001 ",28.633867,77.22191,New Delhi,India,00:00:00,23:59:59,https://ev.delhitransport.in/static/logo/eesl.png,Unstaffed,"E-wallet, cash","[""7906001402""]",charging,110001,central-delhi,,0,15 kW,₹10 per unit,DC,1,DC-001,['4W']
EESL385,EESL,EESL,"NDMC Parking,  Outside Oriental Bank, Radial Road No. 7,  Block M, Middle Circe, Connaught Place,  New Delhi- 110001 ",28.6001517,77.2157617,New Delhi,India,00:00:00,23:59:59,https://ev.delhitransport.in/static/logo/eesl.png,Unstaffed,"E-wallet, cash","[""7906001402""]",charging,110001,central-delhi,,1,15 kW,₹10 per unit,DC,1,DC-001,['4W']
EESL387,EESL,EESL,"NDMC Parking,  Opposite HP Petrol Pump, Block E, RR7, Middle Circle, Connaught Place, New Delhi- 110001 ",28.631584,77.2219,New Delhi,India,00:00:00,23:59:59,https://ev.delhitransport.in/static/logo/eesl.png,Unstaffed,"E-wallet, cash","[""7906001402""]",charging,110001,central-delhi,,1,15 kW,₹10 per unit,DC,1,DC-001,['4W']
EESL389,EESL,EESL,"NDMC Parking,  Near Ferns n Petals, Near BPCL Petrol Pump,  C Block RR5, Connaught Place,  New Delhi- 110001 ",28.634422,77.220852,New Delhi,India,00:00:00,23:59:59,https://ev.delhitransport.in/static/logo/eesl.png,Unstaffed,"E-wallet, cash","[""7906001402""]",charging,110001,central-delhi,,,,,,,,
EESL391,EESL,EESL,"NDMC Parking,  Outside Iqbal Bros.,  G1, Block G, Connaught Place,  New Delhi- 110001 ",28.633841,77.217664,New Delhi,India,00:00:00,23:59:59,https://ev.delhitransport.in/static/logo/eesl.png,Unstaffed,"E-wallet, cash","[""7906001402""]",charging,110001,central-delhi,,1,15 kW,₹10 per unit,DC,1,DC-001,['4W']
EESL393,EESL,EESL,"NDMC Parking,  Near Croma, D Block RR5,  Opposite BPCL Petrol Pump,  Connaught Place, New Delhi- 110001 ",28.634388,77.221038,New Delhi,India,00:00:00,23:59:59,https://ev.delhitransport.in/static/logo/eesl.png,Unstaffed,"E-wallet, cash","[""7906001402""]",charging,110001,central-delhi,,1,15 kW,₹10 per unit,DC,1,DC-001,['4W']
EESL395,EESL,EESL,"NDMC Parking,  Next to PVR Plaza,  H Block RR4, Connaught Place,  New Delhi- 110001 ",28.63491,77.219522,New Delhi,India,00:00:00,23:59:59,https://ev.delhitransport.in/static/logo/eesl.png,Unstaffed,"E-wallet, cash","[""7906001402""]",charging,110001,central-delhi,,1,15 kW,₹10 per unit,DC,1,DC-001,['4W']
EESL397,EESL,EESL,"Outside Bharat Sanchar Bhawan, Ashoke Road, Janpath, New Delhi- 110001	",28.621724,77.219286,New Delhi,India,00:00:00,23:59:59,https://ev.delhitransport.in/static/logo/eesl.png,Unstaffed,"E-wallet, cash","[""7906001402""]",charging,110001,central-delhi,,0,15 kW,₹10 per unit,DC,1,DC-001,['4W']
EESL399,EESL,EESL,"NDMC Parking,  Outside Jain Bhawan,  Shaheed Bhagat Singh Marg, Gole Market,  New Delhi- 110001 ",28.633614,77.207691,New Delhi,India,00:00:00,23:59:59,https://ev.delhitransport.in/static/logo/eesl.png,Unstaffed,"E-wallet, cash","[""7906001402""]",charging,110001,central-delhi,,1,15 kW,₹10 per unit,DC,1,DC-001,['4W']
EESL401,EESL,EESL,"NDMC Parking,  Outside Standard Chartered Bank,  Sardar Patel Bhawan, Sansad Marg,  New Delhi- 110001 ",28.624419,77.213718,New Delhi,India,00:00:00,23:59:59,https://ev.delhitransport.in/static/logo/eesl.png,Unstaffed,"E-wallet, cash","[""7906001402""]",charging,110001,central-delhi,,0,15 kW,₹10 per unit,DC,1,DC-001,['4W']
EESL403,EESL,EESL,"NDMC Parking,  Side of Hotel Claridges,  Tees January Marg,  Dr. APJ Abdul Kalam Road,  New Delhi- 110003 ",28.600234,77.2135299,New Delhi,India,00:00:00,23:59:59,https://ev.delhitransport.in/static/logo/eesl.png,Unstaffed,"E-wallet, cash","[""7906001402""]",charging,110003,central-delhi,,1,15 kW,₹10 per unit,DC,1,DC-001,['4W']
EESL405,EESL,EESL,"NDMC Parking,  Back of Hotel Claridges,  Tees January Marg,  Dr. APJ Abdul Kalam Road,  New Delhi- 110003 ",28.601118,77.2136033,New Delhi,India,00:00:00,23:59:59,https://ev.delhitransport.in/static/logo/eesl.png,Unstaffed,"E-wallet, cash","[""7906001402""]",charging,110003,central-delhi,,1,15 kW,₹10 per unit,DC,1,DC-001,['4W']
EESL420,EESL,EESL,"NDMC Parking,  Gate No. 1, Lodhi Gardens, Lodhi Estate, Lodhi Road,  New Delhi-  110003 ",28.59031055,77.2201632,New Delhi,India,00:00:00,23:59:59,https://ev.delhitransport.in/static/logo/eesl.png,Unstaffed,"E-wallet, cash","[""7906001402""]",charging,110003,central-delhi,,1,15 kW,₹10 per unit,DC,2,DC-001,['4W']
EESL421,EESL,EESL,"NDMC Parking,  Charak Palika Hospital, C 7 Lane, Moti Bagh 1, Block F, Moti Bagh, New Delhi- 110021 ",28.585367,77.17755,New Delhi,India,00:00:00,23:59:59,https://ev.delhitransport.in/static/logo/eesl.png,Unstaffed,"E-wallet, cash","[""7906001402""]",charging,110021,south-west-delhi,,1,15 kW,₹10 per unit,DC,2,DC-001,['4W']
EESL422,EESL,EESL,"NDMC Parking,  Dilli Haat, West Kidwai Nagar,  New Delhi- 110023 ",28.572793,77.208662,New Delhi,India,00:00:00,23:59:59,https://ev.delhitransport.in/static/logo/eesl.png,Unstaffed,"E-wallet, cash","[""7906001402""]",charging,110023,south-west-delhi,,0,15 kW,₹10 per unit,DC,1,DC-001,['4W']
EESL422,EESL,EESL,"NDMC Parking,  Dilli Haat, West Kidwai Nagar,  New Delhi- 110023 ",28.572793,77.208662,New Delhi,India,00:00:00,23:59:59,https://ev.delhitransport.in/static/logo/eesl.png,Unstaffed,"E-wallet, cash","[""7906001402""]",charging,110023,south-west-delhi,,1,22 kW,₹19 per unit,DC,2,IEC-62196-T2-COMBO,['4W']
EESL422,EESL,EESL,"NDMC Parking,  Dilli Haat, West Kidwai Nagar,  New Delhi- 110023 ",28.572793,77.208662,New Delhi,India,00:00:00,23:59:59,https://ev.delhitransport.in/static/logo/eesl.png,Unstaffed,"E-wallet, cash","[""7906001402""]",charging,110023,south-west-delhi,,2,26 kW,₹19 per unit,DC,2,CHADEMO,['4W']
EESL422,EESL,EESL,"NDMC Parking,  Dilli Haat, West Kidwai Nagar,  New Delhi- 110023 ",28.572793,77.208662,New Delhi,India,00:00:00,23:59:59,https://ev.delhitransport.in/static/logo/eesl.png,Unstaffed,"E-wallet, cash","[""7906001402""]",charging,110023,south-west-delhi,,2,22 kW,₹19 per unit,AC,2,IEC-62196-T2,['4W']
EESL423,EESL,EESL,"NDMC Parking,  Akashwani Bhawan,  Sansad Marg Road,  New Delhi- 110001 ",28.622656,77.210994,New Delhi,India,00:00:00,23:59:59,https://ev.delhitransport.in/static/logo/eesl.png,Unstaffed,"E-wallet, cash","[""7906001402""]",charging,110001,central-delhi,,0,15 kW,₹10 per unit,DC,1,DC-001,['4W']
EESL424,EESL,EESL,"NDMC Parking,  Talkatora Garden,  President Estate,  New Delhi- 110001 ",28.62203994,77.19486661,New Delhi,India,00:00:00,23:59:59,https://ev.delhitransport.in/static/logo/eesl.png,Unstaffed,"E-wallet, cash","[""7906001402""]",charging,110001,central-delhi,,0,15 kW,₹10 per unit,DC,2,DC-001,['4W']
EESL426,EESL,EESL,"Palika Maternity Hospital, Block 11, Lodhi Colony, Near Khanna Market, New Delhi 110003",28.583518,77.222057,New Delhi,India,00:00:00,23:59:59,https://ev.delhitransport.in/static/logo/eesl.png,Unstaffed,"E-wallet, cash","[""7906001402""]",charging,110003,central-delhi,,0,15 kW,₹10 per unit,DC,1,DC-001,['4W']
EESL427,EESL,EESL,"PSOI Club, Chanakyapuri, New Delhi 110021",28.586638,77.193352,New Delhi,India,00:00:00,23:59:59,https://ev.delhitransport.in/static/logo/eesl.png,Unstaffed,"E-wallet, cash","[""7906001402""]",charging,110021,south-west-delhi,,1,15 kW,₹9.5 per unit,DC,2,DC-001,['4W']
EESL428,EESL,EESL,"Outside Chelmsford Club/ Opposite CSIR Building, Rafi Marg, Sansad Marg Area, New Delhi 110001",28.61817712,77.21258998,New Delhi,India,00:00:00,23:59:59,https://ev.delhitransport.in/static/logo/eesl.png,Unstaffed,"E-wallet, cash","[""7906001402""]",charging,110001,central-delhi,,2,15 kW,₹9.5 per unit,DC,2,DC-001,['4W']
EESL428,EESL,EESL,"Outside Chelmsford Club/ Opposite CSIR Building, Rafi Marg, Sansad Marg Area, New Delhi 110001",28.61817712,77.21258998,New Delhi,India,00:00:00,23:59:59,https://ev.delhitransport.in/static/logo/eesl.png,Unstaffed,"E-wallet, cash","[""7906001402""]",charging,110001,central-delhi,,4,22 kW,₹19 per unit,AC,4,IEC-62196-T2,['4W']
EESL428,EESL,EESL,"Outside Chelmsford Club/ Opposite CSIR Building, Rafi Marg, Sansad Marg Area, New Delhi 110001",28.61817712,77.21258998,New Delhi,India,00:00:00,23:59:59,https://ev.delhitransport.in/static/logo/eesl.png,Unstaffed,"E-wallet, cash","[""7906001402""]",charging,110001,central-delhi,,4,22 kW,₹19 per unit,DC,4,IEC-62196-T2-COMBO,['4W']
EESL428,EESL,EESL,"Outside Chelmsford Club/ Opposite CSIR Building, Rafi Marg, Sansad Marg Area, New Delhi 110001",28.61817712,77.21258998,New Delhi,India,00:00:00,23:59:59,https://ev.delhitransport.in/static/logo/eesl.png,Unstaffed,"E-wallet, cash","[""7906001402""]",charging,110001,central-delhi,,4,26 kW,₹19 per unit,DC,4,CHADEMO,['4W']
EESL429,EESL,EESL,"Opposite IVORY Mart, F Block, Inner Circle, Connaught Place, New Delhi 110001",28.63388,77.221078,New Delhi,India,00:00:00,23:59:59,https://ev.delhitransport.in/static/logo/eesl.png,Unstaffed,"E-wallet, cash","[""7906001402""]",charging,110001,central-delhi,,0,15 kW,₹9.5 per unit,DC,1,DC-001,['4W']
EESL430,EESL,EESL,"Near Snow White, Block D, Inner Circle, Connaught Place, New Delhi 110001",28.63388,77.221078,New Delhi,India,00:00:00,23:59:59,https://ev.delhitransport.in/static/logo/eesl.png,Unstaffed,"E-wallet, cash","[""7906001402""]",charging,110001,central-delhi,,0,15 kW,₹9.5 per unit,DC,1,DC-001,['4W']
EESL431,EESL,EESL,"Outside Van Heusen Showroom, Block C, Inner Circle, Connaught Place, New Delhi 110001",28.634137,77.220382,New Delhi,India,00:00:00,23:59:59,https://ev.delhitransport.in/static/logo/eesl.png,Unstaffed,"E-wallet, cash","[""7906001402""]",charging,110001,central-delhi,,0,15 kW,₹9.5 per unit,DC,1,DC-001,['4W']
EESL432,EESL,EESL,"Opposite ICICI Bank, Janpath, New Delhi",28.628528,77.21946,New Delhi,India,00:00:00,23:59:59,https://ev.delhitransport.in/static/logo/eesl.png,Unstaffed,"E-wallet, cash","[""7906001402""]",charging,110001,central-delhi,,1,15 kW,₹9.5 per unit,DC,1,DC-001,['4W']
EESL433,EESL,EESL,"Near Woodland Showroom, Block B, Inner Circle, Connaught Place, New Delhi 110001",28.634371,77.2195,New Delhi,India,00:00:00,23:59:59,https://ev.delhitransport.in/static/logo/eesl.png,Unstaffed,"E-wallet, cash","[""7906001402""]",charging,110001,central-delhi,,0,15 kW,₹9.5 per unit,DC,1,DC-001,['4W']
EESL434,EESL,EESL,"Near ICICI Bank/Metro Gate No. 7 & 8, Block A, Inner Circle, Connaught Place, New Delhi 110001",28.63242,77.218068,New Delhi,India,00:00:00,23:59:59,https://ev.delhitransport.in/static/logo/eesl.png,Unstaffed,"E-wallet, cash","[""7906001402""]",charging,110001,central-delhi,,0,15 kW,₹9.5 per unit,DC,1,DC-001,['4W']
EESL435,EESL,EESL,"Gopal Das Building, Barakhamba Road, Connaught Lane, Barakhamba, New Delhi110001",28.631121,77.221654,New Delhi,India,00:00:00,23:59:59,https://ev.delhitransport.in/static/logo/eesl.png,Unstaffed,"E-wallet, cash","[""7906001402""]",charging,110001,central-delhi,,0,15 kW,₹9.5 per unit,DC,1,DC-001,['4W']
EESL436,EESL,EESL,"ICCI, FICCI Chowk, Mandi House, Todermal Road Area, Mandi House, New Delhi110001",28.626695,77.231943,New Delhi,India,00:00:00,23:59:59,https://ev.delhitransport.in/static/logo/eesl.png,Unstaffed,"E-wallet, cash","[""7906001402""]",charging,110001,central-delhi,,0,15 kW,₹9.5 per unit,DC,1,DC-001,['4W']
EESL437,EESL,EESL,"Press Club of India, 1, Raisina Road, Windsor Place, New Delhi110001",28.617517,77.213919,New Delhi,India,00:00:00,23:59:59,https://ev.delhitransport.in/static/logo/eesl.png,Unstaffed,"E-wallet, cash","[""7906001402""]",charging,110001,central-delhi,,0,15 kW,₹9.5 per unit,DC,1,DC-001,['4W']
EESL438,EESL,EESL,"Near NDMC Office, Palika Kendra, New Delhi- 110001",28.6285,77.217046,New Delhi,India,00:00:00,23:59:59,https://ev.delhitransport.in/static/logo/eesl.png,Unstaffed,"E-wallet, cash","[""7906001402""]",charging,110001,central-delhi,,0,15 kW,₹9.5 per unit,DC,1,DC-001,['4W']
EESL439,EESL,EESL,"Laxmi Bai Market, Safderjung Flyover, New Delhi",28.577999,77.209521,New Delhi,India,00:00:00,23:59:59,https://ev.delhitransport.in/static/logo/eesl.png,Unstaffed,"E-wallet, cash","[""7906001402""]",charging,110001,central-delhi,,1,15 kW,₹9.5 per unit,DC,1,DC-001,['4W']
EESL440,EESL,EESL,"Opposite Fab India, Janpath Rd, Atul Grove Road, Janpath, Connaught Place, New Delhi",28.627546,77.219769,New Delhi,India,00:00:00,23:59:59,https://ev.delhitransport.in/static/logo/eesl.png,Unstaffed,"E-wallet, cash","[""7906001402""]",charging,110001,central-delhi,,0,15 kW,₹9.5 per unit,DC,1,DC-001,['4W']
EESL443,EESL,EESL,Talkatora Stadium Presidents Estate New Delhi 110004,28.62575342,77.19453,New Delhi,India,00:00:00,23:59:59,https://ev.delhitransport.in/static/logo/eesl.png,Unstaffed,"E-wallet, cash","[""7906001402""]",charging,110004,central-delhi,,1,15 kW,₹9.5 per unit,DC,2,DC-001,['4W']
EESL444,EESL,EESL,"Outside UCO Bank, Block H, RR3, Connaught Place, New Delhi",28.63407,77.217683,New Delhi,India,00:00:00,23:59:59,https://ev.delhitransport.in/static/logo/eesl.png,Unstaffed,"E-wallet, cash","[""7906001402""]",charging,110001,central-delhi,,0,15 kW,₹9.5 per unit,DC,1,DC-001,['4W']
EESL446,EESL,EESL,"Yashwant Place, Chanakyapuri, New Delhi- 110021",28.585492,77.191634,New Delhi,India,00:00:00,23:59:59,https://ev.delhitransport.in/static/logo/eesl.png,Unstaffed,"E-wallet, cash","[""7906001402""]",charging,110021,south-west-delhi,,0,15 kW,₹9.5 per unit,DC,1,DC-001,['4W']
EESL555,EESL,EESL,"Block N, Greater Kailash I, Greater Kailash, New Delhi, Delhi",28.55667773,77.2326006,New Delhi,India,00:00:00,23:59:59,https://ev.delhitransport.in/static/logo/eesl.png,Unstaffed,"E-wallet, cash","[""7906001402""]",charging,110048,south-delhi,,0,15 kW,₹10 per unit,DC,2,DC-001,['4W']
EESL555,EESL,EESL,"Block N, Greater Kailash I, Greater Kailash, New Delhi, Delhi",28.55667773,77.2326006,New Delhi,India,00:00:00,23:59:59,https://ev.delhitransport.in/static/logo/eesl.png,Unstaffed,"E-wallet, cash","[""7906001402""]",charging,110048,south-delhi,,2,22 kW,₹19 per unit,AC,2,IEC-62196-T2,['4W']
EESL555,EESL,EESL,"Block N, Greater Kailash I, Greater Kailash, New Delhi, Delhi",28.55667773,77.2326006,New Delhi,India,00:00:00,23:59:59,https://ev.delhitransport.in/static/logo/eesl.png,Unstaffed,"E-wallet, cash","[""7906001402""]",charging,110048,south-delhi,,2,22 kW,₹19 per unit,DC,2,IEC-62196-T2-COMBO,['4W']
EESL555,EESL,EESL,"Block N, Greater Kailash I, Greater Kailash, New Delhi, Delhi",28.55667773,77.2326006,New Delhi,India,00:00:00,23:59:59,https://ev.delhitransport.in/static/logo/eesl.png,Unstaffed,"E-wallet, cash","[""7906001402""]",charging,110048,south-delhi,,2,26 kW,₹19 per unit,DC,2,CHADEMO,['4W']
EESL576,EESL,EESL,"SDMC Parking, B6, Safderjung Enclave ",28.558938,77.19631,New Delhi,India,00:00:00,23:59:59,https://ev.delhitransport.in/static/logo/eesl.png,Unstaffed,"E-wallet, cash","[""7906001402""]",charging,110016,south-west-delhi,,0,15 kW,₹10 per unit,DC,1,DC-001,['4W']
EESL577,EESL,EESL,"SDMC Parking, SDA Market, Hauz Khas, New Delhi, Delhi 110016",28.546273,77.19711,New Delhi,India,00:00:00,23:59:59,https://ev.delhitransport.in/static/logo/eesl.png,Unstaffed,"E-wallet, cash","[""7906001402""]",charging,110016,south-west-delhi,,0,15 kW,₹10 per unit,DC,1,DC-001,['4W']
EESL578,EESL,EESL,"SDMC Parking, Aurbindo Market Place,Hauz Khas, New Delhi, Delhi 110016 ",28.55205918,77.20325422,New Delhi,India,00:00:00,23:59:59,https://ev.delhitransport.in/static/logo/eesl.png,Unstaffed,"E-wallet, cash","[""7906001402""]",charging,110016,south-west-delhi,,0,15 kW,₹10 per unit,DC,1,DC-001,['4W']
EESL579,EESL,EESL,"SDMC Parking, R Block, GK-1, DELHI-110016",28.547217,77.244324,New Delhi,India,00:00:00,23:59:59,https://ev.delhitransport.in/static/logo/eesl.png,Unstaffed,"E-wallet, cash","[""7906001402""]",charging,110016,south-west-delhi,,0,15 kW,₹10 per unit,DC,1,DC-001,['4W']
EESL579,EESL,EESL,"SDMC Parking, R Block, GK-1, DELHI-110016",28.547217,77.244324,New Delhi,India,00:00:00,23:59:59,https://ev.delhitransport.in/static/logo/eesl.png,Unstaffed,"E-wallet, cash","[""7906001402""]",charging,110016,south-west-delhi,,0,9.9 kW,₹10 per unit,AC,3,BEVC-AC001,"['2W', '3W', '4W']"
EESL630,EESL,EESL,"SDMC Parking, Near Gold Gym, PVR Priya, Vasant Vihar, New Delhi",28.558244,77.16444,New Delhi,India,00:00:00,23:59:59,https://ev.delhitransport.in/static/logo/eesl.png,Unstaffed,"E-wallet, cash","[""7906001402""]",charging,110057,south-west-delhi,,0,15 kW,₹10 per unit,DC,2,DC-001,['4W']
EESL631,EESL,EESL,"SDMC Parking, Feroze Gandhi Road, Lajpat Nagar, New Delhi",28.56793,77.242612,New Delhi,India,00:00:00,23:59:59,https://ev.delhitransport.in/static/logo/eesl.png,Unstaffed,"E-wallet, cash","[""7906001402""]",charging,110024,south-delhi,,0,15 kW,₹10 per unit,DC,1,DC-001,['4W']
EESL632,EESL,EESL,"Double Story Market, Maherchand Lodhi Road, New Delhi - 110003",28.58107736,77.22719863,New Delhi,India,00:00:00,23:59:59,https://ev.delhitransport.in/static/logo/eesl.png,Unstaffed,"E-wallet, cash","[""7906001402""]",charging,110003,central-delhi,,0,15 kW,₹10 per unit,DC,1,DC-001,['4W']
EESL632,EESL,EESL,"Double Story Market, Maherchand Lodhi Road, New Delhi - 110003",28.58107736,77.22719863,New Delhi,India,00:00:00,23:59:59,https://ev.delhitransport.in/static/logo/eesl.png,Unstaffed,"E-wallet, cash","[""7906001402""]",charging,110003,central-delhi,,2,22 kW,₹10 per unit,DC,2,IEC-62196-T2-COMBO,['4W']
EESL632,EESL,EESL,"Double Story Market, Maherchand Lodhi Road, New Delhi - 110003",28.58107736,77.22719863,New Delhi,India,00:00:00,23:59:59,https://ev.delhitransport.in/static/logo/eesl.png,Unstaffed,"E-wallet, cash","[""7906001402""]",charging,110003,central-delhi,,2,26 kW,₹26 per unit,DC,2,CHADEMO,['4W']
EESL632,EESL,EESL,"Double Story Market, Maherchand Lodhi Road, New Delhi - 110003",28.58107736,77.22719863,New Delhi,India,00:00:00,23:59:59,https://ev.delhitransport.in/static/logo/eesl.png,Unstaffed,"E-wallet, cash","[""7906001402""]",charging,110003,central-delhi,,2,22 kW,₹10 per unit,AC,2,IEC-62196-T2,['4W']
EESL633,EESL,EESL,"SDMC Parking, Veer Savarkar Marg Lajpat Nagar, New Delhi - 110024 ",28.569119,77.244011,New Delhi,India,00:00:00,23:59:59,https://ev.delhitransport.in/static/logo/eesl.png,Unstaffed,"E-wallet, cash","[""7906001402""]",charging,110024,south-delhi,,0,15 kW,₹10 per unit,DC,1,DC-001,['4W']
EESL716,EESL,EESL,"Back side Sushma Swaraj Bhawan build parking ,New Delhi ",28.59566102,77.18169261,New Delhi,India,00:00:00,23:59:59,https://ev.delhitransport.in/static/logo/eesl.png,Unstaffed,"E-wallet, cash","[""7906001402""]",charging,110001,central-delhi,,0,22 kW,₹19 per unit,AC,1,IEC-62196-T2,['4W']
EESL716,EESL,EESL,"Back side Sushma Swaraj Bhawan build parking ,New Delhi ",28.59566102,77.18169261,New Delhi,India,00:00:00,23:59:59,https://ev.delhitransport.in/static/logo/eesl.png,Unstaffed,"E-wallet, cash","[""7906001402""]",charging,110001,central-delhi,,0,22 kW,₹19 per unit,DC,1,IEC-62196-T2-COMBO,['4W']
EESL716,EESL,EESL,"Back side Sushma Swaraj Bhawan build parking ,New Delhi ",28.59566102,77.18169261,New Delhi,India,00:00:00,23:59:59,https://ev.delhitransport.in/static/logo/eesl.png,Unstaffed,"E-wallet, cash","[""7906001402""]",charging,110001,central-delhi,,0,26 kW,₹19 per unit,DC,1,CHADEMO,['4W']
EESL971,EESL,EESL,"SDMC PArking, Dwarka Sec-12, New Delhi-110078",28.59211693,77.04188313,New Delhi,India,00:00:00,23:59:59,https://ev.delhitransport.in/static/logo/eesl.png,Unstaffed,"E-wallet, cash","[""7906001402""]",charging,110078,west-delhi,,1,22 kW,₹19 per unit,AC,1,IEC-62196-T2,['4W']
EESL971,EESL,EESL,"SDMC PArking, Dwarka Sec-12, New Delhi-110078",28.59211693,77.04188313,New Delhi,India,00:00:00,23:59:59,https://ev.delhitransport.in/static/logo/eesl.png,Unstaffed,"E-wallet, cash","[""7906001402""]",charging,110078,west-delhi,,0,22 kW,₹19 per unit,DC,1,IEC-62196-T2-COMBO,['4W']
EESL971,EESL,EESL,"SDMC PArking, Dwarka Sec-12, New Delhi-110078",28.59211693,77.04188313,New Delhi,India,00:00:00,23:59:59,https://ev.delhitransport.in/static/logo/eesl.png,Unstaffed,"E-wallet, cash","[""7906001402""]",charging,110078,west-delhi,,1,26 kW,₹19 per unit,DC,1,CHADEMO,['4W']
EESL972,EESL,EESL,"SDMC PArking, Dwarka Sec-06, New Delhi-110078",28.59193441,77.05855004,New Delhi,India,00:00:00,23:59:59,https://ev.delhitransport.in/static/logo/eesl.png,Unstaffed,"E-wallet, cash","[""7906001402""]",charging,110078,west-delhi,,1,22 kW,₹19 per unit,DC,2,IEC-62196-T2-COMBO,['4W']
EESL972,EESL,EESL,"SDMC PArking, Dwarka Sec-06, New Delhi-110078",28.59193441,77.05855004,New Delhi,India,00:00:00,23:59:59,https://ev.delhitransport.in/static/logo/eesl.png,Unstaffed,"E-wallet, cash","[""7906001402""]",charging,110078,west-delhi,,2,26 kW,₹19 per unit,DC,2,CHADEMO,['4W']
EESL972,EESL,EESL,"SDMC PArking, Dwarka Sec-06, New Delhi-110078",28.59193441,77.05855004,New Delhi,India,00:00:00,23:59:59,https://ev.delhitransport.in/static/logo/eesl.png,Unstaffed,"E-wallet, cash","[""7906001402""]",charging,110078,west-delhi,,2,22 kW,₹19 per unit,AC,2,IEC-62196-T2,['4W']
EESL973,EESL,EESL,"SDMC Parking, The Janak Commercial Complex, Janakpuri, Delhi-110058",28.610622,77.094787,New Delhi,India,00:00:00,23:59:59,https://ev.delhitransport.in/static/logo/eesl.png,Unstaffed,"E-wallet, cash","[""7906001402""]",charging,110058,west-delhi,,2,22 kW,₹19 per unit,AC,2,IEC-62196-T2,['4W']
EESL973,EESL,EESL,"SDMC Parking, The Janak Commercial Complex, Janakpuri, Delhi-110058",28.610622,77.094787,New Delhi,India,00:00:00,23:59:59,https://ev.delhitransport.in/static/logo/eesl.png,Unstaffed,"E-wallet, cash","[""7906001402""]",charging,110058,west-delhi,,2,22 kW,₹19 per unit,DC,2,IEC-62196-T2-COMBO,['4W']
EESL973,EESL,EESL,"SDMC Parking, The Janak Commercial Complex, Janakpuri, Delhi-110058",28.610622,77.094787,New Delhi,India,00:00:00,23:59:59,https://ev.delhitransport.in/static/logo/eesl.png,Unstaffed,"E-wallet, cash","[""7906001402""]",charging,110058,west-delhi,,2,26 kW,₹19 per unit,DC,2,CHADEMO,['4W']
EESL973,EESL,EESL,"SDMC Parking, The Janak Commercial Complex, Janakpuri, Delhi-110058",28.610622,77.094787,New Delhi,India,00:00:00,23:59:59,https://ev.delhitransport.in/static/logo/eesl.png,Unstaffed,"E-wallet, cash","[""7906001402""]",charging,110058,west-delhi,,0,15 kW,₹10 per unit,DC,1,DC-001,['4W']
EESL981,EESL,EESL,vidyasagar institute of Mental hospital. Neuro & Allied science at Vimhans hospital,28.5697722,77.2485642,New Delhi,India,00:00:00,23:59:59,https://ev.delhitransport.in/static/logo/eesl.png,Unstaffed,"E-wallet, cash","[""7906001402""]",charging,110065,south-delhi,,0,22 kW,₹19 per unit,AC,1,IEC-62196-T2,['4W']
EESL981,EESL,EESL,vidyasagar institute of Mental hospital. Neuro & Allied science at Vimhans hospital,28.5697722,77.2485642,New Delhi,India,00:00:00,23:59:59,https://ev.delhitransport.in/static/logo/eesl.png,Unstaffed,"E-wallet, cash","[""7906001402""]",charging,110065,south-delhi,,0,22 kW,₹19 per unit,DC,1,IEC-62196-T2-COMBO,['4W']
EESL981,EESL,EESL,vidyasagar institute of Mental hospital. Neuro & Allied science at Vimhans hospital,28.5697722,77.2485642,New Delhi,India,00:00:00,23:59:59,https://ev.delhitransport.in/static/logo/eesl.png,Unstaffed,"E-wallet, cash","[""7906001402""]",charging,110065,south-delhi,,0,26 kW,₹19 per unit,DC,1,CHADEMO,['4W']
EESL1001,EESL,EESL,"Electric Vehicle Charging Station, H Block, Sarita Vihar Delhi",28.53550427,77.29138121,New Delhi,India,00:00:00,23:59:59,https://ev.delhitransport.in/static/logo/eesl.png,Unstaffed,"E-wallet, cash","[""7906001402""]",charging,110076,south-delhi,,2,22 kW,₹19 per unit,AC,2,IEC-62196-T2,['4W']
EESL1001,EESL,EESL,"Electric Vehicle Charging Station, H Block, Sarita Vihar Delhi",28.53550427,77.29138121,New Delhi,India,00:00:00,23:59:59,https://ev.delhitransport.in/static/logo/eesl.png,Unstaffed,"E-wallet, cash","[""7906001402""]",charging,110076,south-delhi,,2,22 kW,₹19 per unit,DC,2,IEC-62196-T2-COMBO,['4W']
EESL1001,EESL,EESL,"Electric Vehicle Charging Station, H Block, Sarita Vihar Delhi",28.53550427,77.29138121,New Delhi,India,00:00:00,23:59:59,https://ev.delhitransport.in/static/logo/eesl.png,Unstaffed,"E-wallet, cash","[""7906001402""]",charging,110076,south-delhi,,2,26 kW,₹19 per unit,DC,2,CHADEMO,['4W']
EESL1001,EESL,EESL,"Electric Vehicle Charging Station, H Block, Sarita Vihar Delhi",28.53550427,77.29138121,New Delhi,India,00:00:00,23:59:59,https://ev.delhitransport.in/static/logo/eesl.png,Unstaffed,"E-wallet, cash","[""7906001402""]",charging,110076,south-delhi,,0,15 kW,₹10 per unit,DC,1,DC-001,['4W']
EESL1008,EESL,EESL,"SDMC Parking, Nehru Place Plot 81-85, New Delhi - 110019",28.5476707,77.2507293,New Delhi,India,00:00:00,23:59:59,https://ev.delhitransport.in/static/logo/eesl.png,Unstaffed,"E-wallet, cash","[""7906001402""]",charging,110019,south-delhi,,2,22 kW,₹19 per unit,AC,2,IEC-62196-T2,['4W']
EESL1008,EESL,EESL,"SDMC Parking, Nehru Place Plot 81-85, New Delhi - 110019",28.5476707,77.2507293,New Delhi,India,00:00:00,23:59:59,https://ev.delhitransport.in/static/logo/eesl.png,Unstaffed,"E-wallet, cash","[""7906001402""]",charging,110019,south-delhi,,2,22 kW,₹19 per unit,DC,2,IEC-62196-T2-COMBO,['4W']
EESL1008,EESL,EESL,"SDMC Parking, Nehru Place Plot 81-85, New Delhi - 110019",28.5476707,77.2507293,New Delhi,India,00:00:00,23:59:59,https://ev.delhitransport.in/static/logo/eesl.png,Unstaffed,"E-wallet, cash","[""7906001402""]",charging,110019,south-delhi,,2,26 kW,₹19 per unit,DC,2,CHADEMO,['4W']
EESL1008,EESL,EESL,"SDMC Parking, Nehru Place Plot 81-85, New Delhi - 110019",28.5476707,77.2507293,New Delhi,India,00:00:00,23:59:59,https://ev.delhitransport.in/static/logo/eesl.png,Unstaffed,"E-wallet, cash","[""7906001402""]",charging,110019,south-delhi,,0,15 kW,₹10 per unit,DC,1,DC-001,['4W']
EESL1010,EESL,EESL,"EESL, Hauz Khas Village, SDMC Parking, New Delhi",28.55446993,77.19563012,New Delhi,India,00:00:00,23:59:59,https://ev.delhitransport.in/static/logo/eesl.png,Unstaffed,"E-wallet, cash","[""7906001402""]",charging,000000,,,2,15 kW,₹10 per unit,DC,2,DC-001,['4W']
EESL1010,EESL,EESL,"EESL, Hauz Khas Village, SDMC Parking, New Delhi",28.55446993,77.19563012,New Delhi,India,00:00:00,23:59:59,https://ev.delhitransport.in/static/logo/eesl.png,Unstaffed,"E-wallet, cash","[""7906001402""]",charging,000000,,,1,22 kW,₹19 per unit,AC,1,IEC-62196-T2,['4W']
EESL1010,EESL,EESL,"EESL, Hauz Khas Village, SDMC Parking, New Delhi",28.55446993,77.19563012,New Delhi,India,00:00:00,23:59:59,https://ev.delhitransport.in/static/logo/eesl.png,Unstaffed,"E-wallet, cash","[""7906001402""]",charging,000000,,,1,22 kW,₹19 per unit,DC,1,IEC-62196-T2-COMBO,['4W']
EESL1010,EESL,EESL,"EESL, Hauz Khas Village, SDMC Parking, New Delhi",28.55446993,77.19563012,New Delhi,India,00:00:00,23:59:59,https://ev.delhitransport.in/static/logo/eesl.png,Unstaffed,"E-wallet, cash","[""7906001402""]",charging,000000,,,1,26 kW,₹19 per unit,DC,1,CHADEMO,['4W']
EESL1015,EESL,EESL,"NDMC OUTSIDE, ESS 33/11KV NETAJI NAGAR DELHI-110003",28.5791538,77.188127,New Delhi,India,00:00:00,23:59:59,https://ev.delhitransport.in/static/logo/eesl.png,Unstaffed,"E-wallet, cash","[""7906001402""]",charging,110003,central-delhi,,1,22 kW,₹19 per unit,DC,1,IEC-62196-T2-COMBO,['4W']
EESL1015,EESL,EESL,"NDMC OUTSIDE, ESS 33/11KV NETAJI NAGAR DELHI-110003",28.5791538,77.188127,New Delhi,India,00:00:00,23:59:59,https://ev.delhitransport.in/static/logo/eesl.png,Unstaffed,"E-wallet, cash","[""7906001402""]",charging,110003,central-delhi,,1,26 kW,₹19 per unit,DC,1,CHADEMO,['4W']
EESL1015,EESL,EESL,"NDMC OUTSIDE, ESS 33/11KV NETAJI NAGAR DELHI-110003",28.5791538,77.188127,New Delhi,India,00:00:00,23:59:59,https://ev.delhitransport.in/static/logo/eesl.png,Unstaffed,"E-wallet, cash","[""7906001402""]",charging,110003,central-delhi,,1,22 kW,₹19 per unit,AC,1,IEC-62196-T2,['4W']
EESL1015,EESL,EESL,"NDMC OUTSIDE, ESS 33/11KV NETAJI NAGAR DELHI-110003",28.5791538,77.188127,New Delhi,India,00:00:00,23:59:59,https://ev.delhitransport.in/static/logo/eesl.png,Unstaffed,"E-wallet, cash","[""7906001402""]",charging,110003,central-delhi,,2,15 kW,₹9.5 per unit,DC,2,DC-001,['4W']
EESL1161,EESL,EESL,"CESL - DTC EV Plaza, Rajghat - 1 DTC Depot, New Delhi - 110002",28.6400192,77.2562301,New Delhi,India,00:00:00,23:59:59,https://ev.delhitransport.in/static/logo/eesl.png,Unstaffed,"E-wallet, cash","[""7906001402""]",charging,110002,central-delhi,,1,22 kW,₹23 per unit,AC,1,IEC-62196-T2,['4W']
EESL1161,EESL,EESL,"CESL - DTC EV Plaza, Rajghat - 1 DTC Depot, New Delhi - 110002",28.6400192,77.2562301,New Delhi,India,00:00:00,23:59:59,https://ev.delhitransport.in/static/logo/eesl.png,Unstaffed,"E-wallet, cash","[""7906001402""]",charging,110002,central-delhi,,0,22 kW,₹23 per unit,DC,1,IEC-62196-T2-COMBO,['4W']
EESL1161,EESL,EESL,"CESL - DTC EV Plaza, Rajghat - 1 DTC Depot, New Delhi - 110002",28.6400192,77.2562301,New Delhi,India,00:00:00,23:59:59,https://ev.delhitransport.in/static/logo/eesl.png,Unstaffed,"E-wallet, cash","[""7906001402""]",charging,110002,central-delhi,,1,26 kW,₹23 per unit,DC,1,CHADEMO,['4W']
EESL1161,EESL,EESL,"CESL - DTC EV Plaza, Rajghat - 1 DTC Depot, New Delhi - 110002",28.6400192,77.2562301,New Delhi,India,00:00:00,23:59:59,https://ev.delhitransport.in/static/logo/eesl.png,Unstaffed,"E-wallet, cash","[""7906001402""]",charging,110002,central-delhi,,1,9.9 kW,₹1.6 per unit,AC,2,BEVC-AC001,"['2W', '3W', '4W']"
EESL1161,EESL,EESL,"CESL - DTC EV Plaza, Rajghat - 1 DTC Depot, New Delhi - 110002",28.6400192,77.2562301,New Delhi,India,00:00:00,23:59:59,https://ev.delhitransport.in/static/logo/eesl.png,Unstaffed,"E-wallet, cash","[""7906001402""]",charging,110002,central-delhi,,1,15 kW,₹10 per unit,DC,2,DC-001,['4W']
EESL1283,EESL,EESL,"NDMC Barat Ghar - Moti Bagh, E Block, Moti Bagh, New Delhi, Delhi 110021  ",28.58315,77.18098,New Delhi,India,00:00:00,23:59:59,https://ev.delhitransport.in/static/logo/eesl.png,Unstaffed,"E-wallet, cash","[""7906001402""]",charging,110021,south-west-delhi,,1,26 kW,₹19 per unit,DC,1,CHADEMO,['4W']
EESL1283,EESL,EESL,"NDMC Barat Ghar - Moti Bagh, E Block, Moti Bagh, New Delhi, Delhi 110021  ",28.58315,77.18098,New Delhi,India,00:00:00,23:59:59,https://ev.delhitransport.in/static/logo/eesl.png,Unstaffed,"E-wallet, cash","[""7906001402""]",charging,110021,south-west-delhi,,0,15 kW,₹10 per unit,DC,1,DC-001,['4W']
EESL1383,EESL,EESL,"Back Side of Hotel Claridges,Tees January Lane,110003",28.600277,77.21565,New Delhi,India,00:00:00,23:59:59,https://ev.delhitransport.in/static/logo/eesl.png,Unstaffed,"E-wallet, cash","[""7906001402""]",charging,110003,central-delhi,,0,22 kW,₹10 per unit,DC,3,IEC-62196-T2-COMBO,['4W']
EESL1385,EESL,EESL,"Back Side of NDMC office Tees January Lane, Near Mahatma Smirtti Bhawan, New delhi 110001",28.60137,77.21298,New Delhi,India,00:00:00,23:59:59,https://ev.delhitransport.in/static/logo/eesl.png,Unstaffed,"E-wallet, cash","[""7906001402""]",charging,110001,central-delhi,,0,22 kW,₹10 per unit,DC,3,IEC-62196-T2-COMBO,['4W']
EESL1385,EESL,EESL,"Back Side of NDMC office Tees January Lane, Near Mahatma Smirtti Bhawan, New delhi 110001",28.60137,77.21298,New Delhi,India,00:00:00,23:59:59,https://ev.delhitransport.in/static/logo/eesl.png,Unstaffed,"E-wallet, cash","[""7906001402""]",charging,110001,central-delhi,,0,15 kW,₹10 per unit,DC,3,DC-001,['4W']
EESL1386,EESL,EESL,"Back Side of NDMC office Tees January Lane, Near Mahatma Smirtti Bhawan, New delhi 110004",28.60137,77.22282,New Delhi,India,00:00:00,23:59:59,https://ev.delhitransport.in/static/logo/eesl.png,Unstaffed,"E-wallet, cash","[""7906001402""]",charging,110004,central-delhi,,0,22 kW,₹10 per unit,DC,3,IEC-62196-T2-COMBO,['4W']
EESL1386,EESL,EESL,"Back Side of NDMC office Tees January Lane, Near Mahatma Smirtti Bhawan, New delhi 110004",28.60137,77.22282,New Delhi,India,00:00:00,23:59:59,https://ev.delhitransport.in/static/logo/eesl.png,Unstaffed,"E-wallet, cash","[""7906001402""]",charging,110004,central-delhi,,0,15 kW,₹10 per unit,DC,3,DC-001,['4W']
EESL1387,EESL,EESL,"Gate no.1 Lodhi Garden,Lodhi road ,Lodhi Estate New delhi,110003",28.590322,77.22021,New Delhi,India,00:00:00,23:59:59,https://ev.delhitransport.in/static/logo/eesl.png,Unstaffed,"E-wallet, cash","[""7906001402""]",charging,110003,central-delhi,,0,22 kW,₹10 per unit,DC,6,IEC-62196-T2-COMBO,['4W']
EESL1388,EESL,EESL,"Fire Bridge lane, Barakambha road, New Delhi,110001",28.627291,77.23179,New Delhi,India,00:00:00,23:59:59,https://ev.delhitransport.in/static/logo/eesl.png,Unstaffed,"E-wallet, cash","[""7906001402""]",charging,110001,central-delhi,,0,22 kW,₹10 per unit,DC,2,IEC-62196-T2-COMBO,['4W']
EESL1388,EESL,EESL,"Fire Bridge lane, Barakambha road, New Delhi,110001",28.627291,77.23179,New Delhi,India,00:00:00,23:59:59,https://ev.delhitransport.in/static/logo/eesl.png,Unstaffed,"E-wallet, cash","[""7906001402""]",charging,110001,central-delhi,,0,26 kW,₹26 per unit,DC,2,CHADEMO,['4W']
EESL1388,EESL,EESL,"Fire Bridge lane, Barakambha road, New Delhi,110001",28.627291,77.23179,New Delhi,India,00:00:00,23:59:59,https://ev.delhitransport.in/static/logo/eesl.png,Unstaffed,"E-wallet, cash","[""7906001402""]",charging,110001,central-delhi,,0,22 kW,₹10 per unit,AC,2,IEC-62196-T2,['4W']
REVBOLT_000476,REVOS,REVOS,142 Deepali Enclave Pitampura Delhi 110034,28.69449234,77.11891174,Delhi,India,00:00:00,00:00:00,https://ev.delhitransport.in/static/logo/revos.png,Unstaffed,UPI,"[""+919350430777""]",charging,110034,north-west-delhi,,1,3.3 kW,₹0 per unit,AC,1,5A/15A Socket,"['2W', '3W']"
REVBOLT_001195,REVOS,REVOS,sector 14 rohini,28.71756935,77.12598419,Delhi,India,00:00:00,00:00:00,https://ev.delhitransport.in/static/logo/revos.png,Unstaffed,UPI,"[""+919310430888""]",charging,110085,north-delhi,,1,3.3 kW,₹0 per unit,AC,1,5A/15A Socket,"['2W', '3W']"
REVBOLT_001838,REVOS,REVOS,"Zypp Electric Hub, Ghazipur",28.62866592,77.31869507,New Delhi,India,00:00:00,00:00:00,https://ev.delhitransport.in/static/logo/revos.png,Unstaffed,UPI,"[""+918884890090""]",charging,110092,east-delhi,,1,3.3 kW,₹0 per unit,AC,1,5A/15A Socket,"['2W', '3W']"
REVBOLT_001834,REVOS,REVOS,Zypp Electric Ghazipur Station,28.62871933,77.31866455,New Delhi,India,00:00:00,00:00:00,https://ev.delhitransport.in/static/logo/revos.png,Unstaffed,UPI,"[""+918884890060""]",charging,110092,east-delhi,,1,3.3 kW,₹0 per unit,AC,1,5A/15A Socket,"['2W', '3W']"
REVBOLT_001833,REVOS,REVOS,Zypp Electric Ghazipur Station,28.6286602,77.31881714,New Delhi,India,00:00:00,00:00:00,https://ev.delhitransport.in/static/logo/revos.png,Unstaffed,UPI,"[""+918884890060""]",charging,110092,east-delhi,,1,3.3 kW,₹0 per unit,AC,1,5A/15A Socket,"['2W', '3W']"
REVBOLT_001839,REVOS,REVOS,Zypp Electric Ghazipur Station,28.62870598,77.31876373,New Delhi,India,00:00:00,00:00:00,https://ev.delhitransport.in/static/logo/revos.png,Unstaffed,UPI,"[""+918884890060""]",charging,110092,east-delhi,,1,3.3 kW,₹0 per unit,AC,1,5A/15A Socket,"['2W', '3W']"
REVBOLT_001837,REVOS,REVOS,Zypp Electric Ghazipur Station,28.62871933,77.31871796,New Delhi,India,00:00:00,00:00:00,https://ev.delhitransport.in/static/logo/revos.png,Unstaffed,UPI,"[""+918884890060""]",charging,110092,east-delhi,,1,3.3 kW,₹0 per unit,AC,1,5A/15A Socket,"['2W', '3W']"
REVBOLT_001836,REVOS,REVOS,Zypp Electric Ghazipur Station,28.62870515,77.31875617,New Delhi,India,00:00:00,00:00:00,https://ev.delhitransport.in/static/logo/revos.png,Unstaffed,UPI,"[""+918884890060""]",charging,110092,east-delhi,,1,3.3 kW,₹0 per unit,AC,1,5A/15A Socket,"['2W', '3W']"
REVBOLT_001832,REVOS,REVOS,Zypp Electric Ghazipur Station,28.62870633,77.31871393,New Delhi,India,00:00:00,00:00:00,https://ev.delhitransport.in/static/logo/revos.png,Unstaffed,UPI,"[""+918884890060""]",charging,110092,east-delhi,,1,3.3 kW,₹0 per unit,AC,1,5A/15A Socket,"['2W', '3W']"
REVBOLT_001840,REVOS,REVOS,Zypp Electric Gazipur Station,28.62866424,77.31873874,New Delhi,India,00:00:00,00:00:00,https://ev.delhitransport.in/static/logo/revos.png,Unstaffed,UPI,"[""+918884890060""]",charging,110092,east-delhi,,1,3.3 kW,₹0 per unit,AC,1,5A/15A Socket,"['2W', '3W']"
REVBOLT_001841,REVOS,REVOS,Zypp Electric Gazipur Station,28.62870839,77.31869817,New Delhi,India,00:00:00,00:00:00,https://ev.delhitransport.in/static/logo/revos.png,Unstaffed,UPI,"[""+918884890060""]",charging,110092,east-delhi,,1,3.3 kW,₹0 per unit,AC,1,5A/15A Socket,"['2W', '3W']"
REVBOLT_001751,REVOS,REVOS,Zypp Electric Mohan Estate Station,28.528999,77.29247589,New Delhi,India,00:00:00,00:00:00,https://ev.delhitransport.in/static/logo/revos.png,Unstaffed,UPI,"[""+918884890060""]",charging,110076,south-delhi,,1,3.3 kW,₹0 per unit,AC,1,5A/15A Socket,"['2W', '3W']"
REVBOLT_001750,REVOS,REVOS,Zypp Electric Mohan Estate Station 2,28.52918958,77.2925587,New Delhi,India,00:00:00,00:00:00,https://ev.delhitransport.in/static/logo/revos.png,Unstaffed,UPI,"[""+918884890060""]",charging,110076,south-delhi,,1,3.3 kW,₹0 per unit,AC,1,5A/15A Socket,"['2W', '3W']"
REVBOLT_001747,REVOS,REVOS,Zypp Electric Mohan Estate Station 3,28.5290261,77.29254965,New Delhi,India,00:00:00,00:00:00,https://ev.delhitransport.in/static/logo/revos.png,Unstaffed,UPI,"[""+918884890060""]",charging,110076,south-delhi,,1,3.3 kW,₹0 per unit,AC,1,5A/15A Socket,"['2W', '3W']"
REVBOLT_001744,REVOS,REVOS,"473, Britannia Rd, Tri Nagar, Delhi, 110034",28.68061588,77.15544552,Delhi,India,00:00:00,00:00:00,https://ev.delhitransport.in/static/logo/revos.png,Unstaffed,UPI,"[""+918884890060""]",charging,110034,north-west-delhi,,1,3.3 kW,₹0 per unit,AC,1,5A/15A Socket,"['2W', '3W']"
REVBOLT_001675,REVOS,REVOS,"Pocket D, Okhla Phase I, Okhla Industrial Estate, New Delhi, Delhi 110020",28.52680564,77.27452118,New Delhi,India,00:00:00,00:00:00,https://ev.delhitransport.in/static/logo/revos.png,Unstaffed,UPI,"[""+918884890060""]",charging,110020,south-delhi,,1,3.3 kW,₹0 per unit,AC,1,5A/15A Socket,"['2W', '3W']"
REVBOLT_001680,REVOS,REVOS,"Pocket D, Okhla Phase I, Okhla Industrial Estate, New Delhi, Delhi 110020",28.52390849,77.27610301,New Delhi,India,00:00:00,00:00:00,https://ev.delhitransport.in/static/logo/revos.png,Unstaffed,UPI,"[""+918884890060""]",charging,110020,south-delhi,,1,3.3 kW,₹0 per unit,AC,1,5A/15A Socket,"['2W', '3W']"
REVBOLT_001678,REVOS,REVOS,"Nangloi, Delhi, 110041",28.68121092,77.07572524,Delhi,India,00:00:00,00:00:00,https://ev.delhitransport.in/static/logo/revos.png,Unstaffed,UPI,"[""+918884890060""]",charging,110041,west-delhi,,1,3.3 kW,₹0 per unit,AC,1,5A/15A Socket,"['2W', '3W']"
REVBOLT_001674,REVOS,REVOS,"Nangloi, Delhi, 110041",28.68125475,77.07581777,Delhi,India,00:00:00,00:00:00,https://ev.delhitransport.in/static/logo/revos.png,Unstaffed,UPI,"[""+918884890060""]",charging,110041,west-delhi,,1,3.3 kW,₹0 per unit,AC,1,5A/15A Socket,"['2W', '3W']"
REVBOLT_001698,REVOS,REVOS,"Sanjay Colony II, Sanjay Colony, Okhla Phase II, Okhla Industrial Estate, New Delhi, Delhi 110020",28.54138916,77.27565978,New Delhi,India,00:00:00,00:00:00,https://ev.delhitransport.in/static/logo/revos.png,Unstaffed,UPI,"[""+918884890060""]",charging,110020,south-delhi,,1,3.3 kW,₹0 per unit,AC,1,5A/15A Socket,"['2W', '3W']"
REVBOLT_001699,REVOS,REVOS,"Sanjay Colony II, Sanjay Colony, Okhla Phase II, Okhla Industrial Estate, New Delhi, Delhi 110020",28.54131435,77.27578182,New Delhi,India,00:00:00,00:00:00,https://ev.delhitransport.in/static/logo/revos.png,Unstaffed,UPI,"[""+918884890060""]",charging,110020,south-delhi,,1,3.3 kW,₹0 per unit,AC,1,5A/15A Socket,"['2W', '3W']"
REVBOLT_001692,REVOS,REVOS,"Pocket 1, Matiala Extension, Matiala, Delhi, 110078",28.60875918,77.04942584,New Delhi,India,00:00:00,00:00:00,https://ev.delhitransport.in/static/logo/revos.png,Unstaffed,UPI,"[""+918884890060""]",charging,110075,south-west-delhi,,1,3.3 kW,₹0 per unit,AC,1,5A/15A Socket,"['2W', '3W']"
REVBOLT_001694,REVOS,REVOS,"Pocket 1, Matiala Extension, Matiala, Delhi, 110078",28.60865469,77.04941545,New Delhi,India,00:00:00,00:00:00,https://ev.delhitransport.in/static/logo/revos.png,Unstaffed,UPI,"[""+918884890060""]",charging,110075,south-west-delhi,,1,3.3 kW,₹0 per unit,AC,1,5A/15A Socket,"['2W', '3W']"
REVBOLT_001693,REVOS,REVOS,"Pocket 1, Matiala Extension, Matiala, Delhi, 110078",28.60870855,77.04949088,New Delhi,India,00:00:00,00:00:00,https://ev.delhitransport.in/static/logo/revos.png,Unstaffed,UPI,"[""+918884890060""]",charging,110075,south-west-delhi,,1,3.3 kW,₹0 per unit,AC,1,5A/15A Socket,"['2W', '3W']"
REVBOLT_001722,REVOS,REVOS,"473, Britannia Rd, Tri Nagar, Delhi, 110034zypp",28.6807207,77.1553153,Delhi,India,00:00:00,00:00:00,https://ev.delhitransport.in/static/logo/revos.png,Unstaffed,UPI,"[""+918884890060""]",charging,110034,north-west-delhi,,1,3.3 kW,₹5 per unit,AC,1,5A/15A Socket,"['2W', '3W']"
REVBOLT_001486,REVOS,REVOS,"ETO BRANCH OFFICE, DEHLI",28.5689395,77.18709822,New Delhi,India,00:00:00,00:00:00,https://ev.delhitransport.in/static/logo/revos.png,Unstaffed,UPI,"[""+919989813666""]",charging,110066,south-west-delhi,,1,3.3 kW,₹0 per unit,AC,1,5A/15A Socket,"['2W', '3W']"
REVBOLT_001322,REVOS,REVOS,Delhi,28.562436,77.28738874,New Delhi,India,00:00:00,00:00:00,https://ev.delhitransport.in/static/logo/revos.png,Unstaffed,UPI,"[""7207925176""]",charging,110025,south-delhi,,1,3.3 kW,₹0 per unit,AC,1,5A/15A Socket,"['2W', '3W']"
REVBOLT_001298,REVOS,REVOS,DELHI,28.56091881,77.28561401,New Delhi,India,00:00:00,00:00:00,https://ev.delhitransport.in/static/logo/revos.png,Unstaffed,UPI,"[""7207925176""]",charging,110025,south-delhi,,1,3.3 kW,₹0 per unit,AC,1,5A/15A Socket,"['2W', '3W']"
REVBOLT_001309,REVOS,REVOS,DELHI,28.56243099,77.28730626,New Delhi,India,00:00:00,00:00:00,https://ev.delhitransport.in/static/logo/revos.png,Unstaffed,UPI,"[""7207925176""]",charging,110025,south-delhi,,1,3.3 kW,₹0 per unit,AC,1,5A/15A Socket,"['2W', '3W']"
REVBOLT_001317,REVOS,REVOS,DELHI,28.56053734,77.28447723,New Delhi,India,00:00:00,00:00:00,https://ev.delhitransport.in/static/logo/revos.png,Unstaffed,UPI,"[""7207925176""]",charging,110025,south-delhi,,1,3.3 kW,₹0 per unit,AC,1,5A/15A Socket,"['2W', '3W']"
REVBOLT_001314,REVOS,REVOS,DELHI,28.5624198,77.28730861,New Delhi,India,00:00:00,00:00:00,https://ev.delhitransport.in/static/logo/revos.png,Unstaffed,UPI,"[""+917207925176""]",charging,110025,south-delhi,,1,3.3 kW,₹0 per unit,AC,1,5A/15A Socket,"['2W', '3W']"
REVBOLT_001315,REVOS,REVOS,DELHI,28.5624198,77.28730861,New Delhi,India,00:00:00,00:00:00,https://ev.delhitransport.in/static/logo/revos.png,Unstaffed,UPI,"[""7207925176""]",charging,110025,south-delhi,,1,3.3 kW,₹0 per unit,AC,1,5A/15A Socket,"['2W', '3W']"
REVBOLT_001310,REVOS,REVOS,DELHI,28.56239506,77.28739042,New Delhi,India,00:00:00,00:00:00,https://ev.delhitransport.in/static/logo/revos.png,Unstaffed,UPI,"[""7207925176""]",charging,110025,south-delhi,,1,3.3 kW,₹0 per unit,AC,1,5A/15A Socket,"['2W', '3W']"
REVBOLT_001320,REVOS,REVOS,DELHI,28.56247545,77.28728045,New Delhi,India,00:00:00,00:00:00,https://ev.delhitransport.in/static/logo/revos.png,Unstaffed,UPI,"[""7207925176""]",charging,110025,south-delhi,,1,3.3 kW,₹0 per unit,AC,1,5A/15A Socket,"['2W', '3W']"
REVBOLT_001321,REVOS,REVOS,DELHI,28.56253815,77.28739166,New Delhi,India,00:00:00,00:00:00,https://ev.delhitransport.in/static/logo/revos.png,Unstaffed,UPI,"[""+919177601111""]",charging,110025,south-delhi,,1,3.3 kW,₹0 per unit,AC,1,5A/15A Socket,"['2W', '3W']"
REVBOLT_001287,REVOS,REVOS,DELHI,28.56247711,77.28733826,New Delhi,India,00:00:00,00:00:00,https://ev.delhitransport.in/static/logo/revos.png,Unstaffed,UPI,"[""7207925176""]",charging,110025,south-delhi,,1,3.3 kW,₹0 per unit,AC,1,5A/15A Socket,"['2W', '3W']"
REVBOLT_001295,REVOS,REVOS,DELHI,28.5624569,77.28736963,New Delhi,India,00:00:00,00:00:00,https://ev.delhitransport.in/static/logo/revos.png,Unstaffed,UPI,"[""+917207925176""]",charging,110025,south-delhi,,1,3.3 kW,₹0 per unit,AC,1,5A/15A Socket,"['2W', '3W']"
REVBOLT_001296,REVOS,REVOS,DELHI,28.56239128,77.28734589,New Delhi,India,00:00:00,00:00:00,https://ev.delhitransport.in/static/logo/revos.png,Unstaffed,UPI,"[""+919177601111""]",charging,110025,south-delhi,,1,3.3 kW,₹0 per unit,AC,1,5A/15A Socket,"['2W', '3W']"
REVBOLT_001171,REVOS,REVOS,DELHI,28.56237857,77.28726167,New Delhi,India,00:00:00,00:00:00,https://ev.delhitransport.in/static/logo/revos.png,Unstaffed,UPI,"[""+919177601111""]",charging,110025,south-delhi,,1,3.3 kW,₹0 per unit,AC,1,5A/15A Socket,"['2W', '3W']"
REVBOLT_001316,REVOS,REVOS,DELHI,28.56239891,77.28736115,New Delhi,India,00:00:00,00:00:00,https://ev.delhitransport.in/static/logo/revos.png,Unstaffed,UPI,"[""+919177601111""]",charging,110025,south-delhi,,1,3.3 kW,₹0 per unit,AC,1,5A/15A Socket,"['2W', '3W']"
REVBOLT_001328,REVOS,REVOS,DELHI,28.56242245,77.28733107,New Delhi,India,00:00:00,00:00:00,https://ev.delhitransport.in/static/logo/revos.png,Unstaffed,UPI,"[""+919177601111""]",charging,110025,south-delhi,,1,3.3 kW,₹0 per unit,AC,1,5A/15A Socket,"['2W', '3W']"
REVBOLT_001308,REVOS,REVOS,DELHI,28.5624733,77.28734589,New Delhi,India,00:00:00,00:00:00,https://ev.delhitransport.in/static/logo/revos.png,Unstaffed,UPI,"[""+919177601111""]",charging,110025,south-delhi,,1,3.3 kW,₹0 per unit,AC,1,5A/15A Socket,"['2W', '3W']"
REVBOLT_001170,REVOS,REVOS,DELHI,28.56242752,77.287323,New Delhi,India,00:00:00,00:00:00,https://ev.delhitransport.in/static/logo/revos.png,Unstaffed,UPI,"[""+917207925176""]",charging,110025,south-delhi,,1,3.3 kW,₹0 per unit,AC,1,5A/15A Socket,"['2W', '3W']"
REVBOLT_001325,REVOS,REVOS,DELHI,28.5624485,77.28730774,New Delhi,India,00:00:00,00:00:00,https://ev.delhitransport.in/static/logo/revos.png,Unstaffed,UPI,"[""+917207925176""]",charging,110025,south-delhi,,1,3.3 kW,₹0 per unit,AC,1,5A/15A Socket,"['2W', '3W']"
REVBOLT_001318,REVOS,REVOS,DELHI,28.56245613,77.2873764,New Delhi,India,00:00:00,00:00:00,https://ev.delhitransport.in/static/logo/revos.png,Unstaffed,UPI,"[""+917207925176""]",charging,110025,south-delhi,,1,3.3 kW,₹0 per unit,AC,1,5A/15A Socket,"['2W', '3W']"
REVBOLT_001326,REVOS,REVOS,DELHI,28.56245804,77.28735352,New Delhi,India,00:00:00,00:00:00,https://ev.delhitransport.in/static/logo/revos.png,Unstaffed,UPI,"[""+917207925176""]",charging,110025,south-delhi,,1,3.3 kW,₹0 per unit,AC,1,5A/15A Socket,"['2W', '3W']"
REVBOLT_001172,REVOS,REVOS,DELHI,28.5624752,77.28738403,New Delhi,India,00:00:00,00:00:00,https://ev.delhitransport.in/static/logo/revos.png,Unstaffed,UPI,"[""+919177601111""]",charging,110025,south-delhi,,1,3.3 kW,₹0 per unit,AC,1,5A/15A Socket,"['2W', '3W']"
REVBOLT_001327,REVOS,REVOS,DELHI,28.5624733,77.28734589,New Delhi,India,00:00:00,00:00:00,https://ev.delhitransport.in/static/logo/revos.png,Unstaffed,UPI,"[""+919177601111""]",charging,110025,south-delhi,,1,3.3 kW,₹0 per unit,AC,1,5A/15A Socket,"['2W', '3W']"
REVBOLT_001324,REVOS,REVOS,DELHI,28.56244469,77.28736115,New Delhi,India,00:00:00,00:00:00,https://ev.delhitransport.in/static/logo/revos.png,Unstaffed,UPI,"[""+919989813666""]",charging,110025,south-delhi,,1,3.3 kW,₹0 per unit,AC,1,5A/15A Socket,"['2W', '3W']"
REVBOLT_001297,REVOS,REVOS,DELHI,28.56243134,77.28741455,New Delhi,India,00:00:00,00:00:00,https://ev.delhitransport.in/static/logo/revos.png,Unstaffed,UPI,"[""7207925176""]",charging,110025,south-delhi,,1,3.3 kW,₹0 per unit,AC,1,5A/15A Socket,"['2W', '3W']"
REVBOLT_001173,REVOS,REVOS,DELHI,28.5624463,77.28725664,New Delhi,India,00:00:00,00:00:00,https://ev.delhitransport.in/static/logo/revos.png,Unstaffed,UPI,"[""+919177601111""]",charging,110025,south-delhi,,1,3.3 kW,₹0 per unit,AC,1,5A/15A Socket,"['2W', '3W']"
REVBOLT_001428,REVOS,REVOS,Delhi,28.568917,77.186861,New Delhi,India,00:00:00,00:00:00,https://ev.delhitransport.in/static/logo/revos.png,Unstaffed,UPI,"[""+919177967280""]",charging,110066,south-west-delhi,,1,3.3 kW,₹0 per unit,AC,1,5A/15A Socket,"['2W', '3W']"
REVBOLT_001421,REVOS,REVOS,Delhi,28.568917,77.186861,New Delhi,India,00:00:00,00:00:00,https://ev.delhitransport.in/static/logo/revos.png,Unstaffed,UPI,"[""+919177967280""]",charging,110066,south-west-delhi,,1,3.3 kW,₹0 per unit,AC,1,5A/15A Socket,"['2W', '3W']"
REVBOLT_001420,REVOS,REVOS,DELHI,28.568917,77.186861,New Delhi,India,00:00:00,00:00:00,https://ev.delhitransport.in/static/logo/revos.png,Unstaffed,UPI,"[""+919177967280""]",charging,110066,south-west-delhi,,1,3.3 kW,₹0 per unit,AC,1,5A/15A Socket,"['2W', '3W']"
REVBOLT_001417,REVOS,REVOS,DELHI,28.568917,77.186861,New Delhi,India,00:00:00,00:00:00,https://ev.delhitransport.in/static/logo/revos.png,Unstaffed,UPI,"[""+919177967280""]",charging,110066,south-west-delhi,,1,3.3 kW,₹0 per unit,AC,1,5A/15A Socket,"['2W', '3W']"
REVBOLT_001416,REVOS,REVOS,Delhi,28.568917,77.186861,New Delhi,India,00:00:00,00:00:00,https://ev.delhitransport.in/static/logo/revos.png,Unstaffed,UPI,"[""+919177967280""]",charging,110066,south-west-delhi,,1,3.3 kW,₹0 per unit,AC,1,5A/15A Socket,"['2W', '3W']"
REVBOLT_001333,REVOS,REVOS,Delhi,28.568917,77.186861,New Delhi,India,00:00:00,00:00:00,https://ev.delhitransport.in/static/logo/revos.png,Unstaffed,UPI,"[""+919177967280""]",charging,110066,south-west-delhi,,1,3.3 kW,₹0 per unit,AC,1,5A/15A Socket,"['2W', '3W']"
REVBOLT_001412,REVOS,REVOS,DELHI,28.568917,77.186861,New Delhi,India,00:00:00,00:00:00,https://ev.delhitransport.in/static/logo/revos.png,Unstaffed,UPI,"[""+919177967280""]",charging,110066,south-west-delhi,,1,3.3 kW,₹0 per unit,AC,1,5A/15A Socket,"['2W', '3W']"
REVBOLT_001410,REVOS,REVOS,Delhi,28.568917,77.186861,New Delhi,India,00:00:00,00:00:00,https://ev.delhitransport.in/static/logo/revos.png,Unstaffed,UPI,"[""+919177967280""]",charging,110066,south-west-delhi,,1,3.3 kW,₹0 per unit,AC,1,5A/15A Socket,"['2W', '3W']"
REVBOLT_001407,REVOS,REVOS,Delhi,28.568917,77.186861,New Delhi,India,00:00:00,00:00:00,https://ev.delhitransport.in/static/logo/revos.png,Unstaffed,UPI,"[""+919177967280""]",charging,110066,south-west-delhi,,1,3.3 kW,₹0 per unit,AC,1,5A/15A Socket,"['2W', '3W']"
REVBOLT_001406,REVOS,REVOS,Delhi,28.568917,77.186861,New Delhi,India,00:00:00,00:00:00,https://ev.delhitransport.in/static/logo/revos.png,Unstaffed,UPI,"[""+919177967280""]",charging,110066,south-west-delhi,,1,3.3 kW,₹0 per unit,AC,1,5A/15A Socket,"['2W', '3W']"
REVBOLT_001405,REVOS,REVOS,Delhi,28.568917,77.186861,New Delhi,India,00:00:00,00:00:00,https://ev.delhitransport.in/static/logo/revos.png,Unstaffed,UPI,"[""+919177967280""]",charging,110066,south-west-delhi,,1,3.3 kW,₹0 per unit,AC,1,5A/15A Socket,"['2W', '3W']"
REVBOLT_001404,REVOS,REVOS,DELHI,28.568917,77.186861,New Delhi,India,00:00:00,00:00:00,https://ev.delhitransport.in/static/logo/revos.png,Unstaffed,UPI,"[""+919177967280""]",charging,110066,south-west-delhi,,1,3.3 kW,₹0 per unit,AC,1,5A/15A Socket,"['2W', '3W']"
REVBOLT_004758,REVOS,REVOS,G57 Vikas Marg Laxmi Nagar Delhi 110092,28.63279918,77.28075229,Delhi,India,00:00:00,00:00:00,https://ev.delhitransport.in/static/logo/revos.png,Unstaffed,UPI,"[""+919711575799""]",charging,110092,east-delhi,,1,3.3 kW,₹0 per unit,AC,1,5A/15A Socket,"['2W', '3W']"
REVBOLT_004184,REVOS,REVOS,"plot no-57, kh. no-13/13, 13/1, 13/2 Railway road, samepur Delhi-42",28.74950534,77.14600112,Delhi,India,00:00:00,00:00:00,https://ev.delhitransport.in/static/logo/revos.png,Unstaffed,UPI,"[""+917289055554""]",charging,110042,north-west-delhi,,1,3.3 kW,₹0 per unit,AC,1,5A/15A Socket,"['2W', '3W']"
REVBOLT_002560,REVOS,REVOS,77.29266726747801,28.52893411,77.29266727,New Delhi,India,00:00:00,00:00:00,https://ev.delhitransport.in/static/logo/revos.png,Unstaffed,UPI,"[""+918884890060""]",charging,110076,south-delhi,,1,3.3 kW,₹5 per unit,AC,1,5A/15A Socket,"['2W', '3W']"
REVBOLT_002559,REVOS,REVOS,"Sanjay Colony II, Sanjay Colony, Okhla Phase II, Okhla Industrial Estate, New Delhi, Delhi 110020",28.5413247,77.2755771,New Delhi,India,00:00:00,00:00:00,https://ev.delhitransport.in/static/logo/revos.png,Unstaffed,UPI,"[""+918884890060""]",charging,110020,south-delhi,,1,3.3 kW,₹0 per unit,AC,1,5A/15A Socket,"['2W', '3W']"
REVBOLT_002552,REVOS,REVOS,"Sanjay Colony II, Sanjay Colony, Okhla Phase II, Okhla Industrial Estate, New Delhi, Delhi 110020",28.5413247,77.2755771,New Delhi,India,00:00:00,00:00:00,https://ev.delhitransport.in/static/logo/revos.png,Unstaffed,UPI,"[""+918884890060""]",charging,110020,south-delhi,,1,3.3 kW,₹0 per unit,AC,1,5A/15A Socket,"['2W', '3W']"
REVBOLT_002558,REVOS,REVOS,"Sanjay Colony II, Sanjay Colony, Okhla Phase II, Okhla Industrial Estate, New Delhi, Delhi 110020",28.5413247,77.2755771,New Delhi,India,00:00:00,00:00:00,https://ev.delhitransport.in/static/logo/revos.png,Unstaffed,UPI,"[""+918884890060""]",charging,110020,south-delhi,,1,3.3 kW,₹0 per unit,AC,1,5A/15A Socket,"['2W', '3W']"
REVBOLT_002554,REVOS,REVOS,"Sanjay Colony II, Sanjay Colony, Okhla Phase II, Okhla Industrial Estate, New Delhi, Delhi 110020",28.5413247,77.2755771,New Delhi,India,00:00:00,00:00:00,https://ev.delhitransport.in/static/logo/revos.png,Unstaffed,UPI,"[""+918884090060""]",charging,110020,south-delhi,,1,3.3 kW,₹0 per unit,AC,1,5A/15A Socket,"['2W', '3W']"
REVBOLT_004606,REVOS,REVOS,"2/115 Geeta colony, Near Ramlila ground",28.65441409,77.27352574,New Delhi,India,00:00:00,00:00:00,https://ev.delhitransport.in/static/logo/revos.png,Unstaffed,UPI,"[""+917289891872""]",charging,110031,east-delhi,,1,3.3 kW,₹0 per unit,AC,1,5A/15A Socket,"['2W', '3W']"
REVBOLT_003481,REVOS,REVOS,Lohia auto new Delhi,28.49802589,77.15930176,New Delhi,India,00:00:00,00:00:00,https://ev.delhitransport.in/static/logo/revos.png,Unstaffed,UPI,"[""+911234567890""]",charging,110030,south-west-delhi,,1,3.3 kW,₹0 per unit,AC,1,5A/15A Socket,"['2W', '3W']"
REVBOLT_001848,REVOS,REVOS,"Pocket E Sarita Vihar, Sarita Vihar, New Delhi, Delhi 110076",28.52893411,77.29266727,New Delhi,India,00:00:00,00:00:00,https://ev.delhitransport.in/static/logo/revos.png,Unstaffed,UPI,"[""+918884890060""]",charging,110076,south-delhi,,1,3.3 kW,₹5 per unit,AC,1,5A/15A Socket,"['2W', '3W']"
REVBOLT_001397,REVOS,REVOS,Delhi,28.568917,77.186861,New Delhi,India,00:00:00,00:00:00,https://ev.delhitransport.in/static/logo/revos.png,Unstaffed,UPI,"[""+919177967280""]",charging,110066,south-west-delhi,,1,3.3 kW,₹0 per unit,AC,1,5A/15A Socket,"['2W', '3W']"
REVBOLT_001396,REVOS,REVOS,DELHI,28.568917,77.186861,New Delhi,India,00:00:00,00:00:00,https://ev.delhitransport.in/static/logo/revos.png,Unstaffed,UPI,"[""+919177967280""]",charging,110066,south-west-delhi,,1,3.3 kW,₹0 per unit,AC,1,5A/15A Socket,"['2W', '3W']"
REVBOLT_001394,REVOS,REVOS,Delhi,28.568917,77.186861,New Delhi,India,00:00:00,00:00:00,https://ev.delhitransport.in/static/logo/revos.png,Unstaffed,UPI,"[""+919177967280""]",charging,110066,south-west-delhi,,1,3.3 kW,₹0 per unit,AC,1,5A/15A Socket,"['2W', '3W']"
REVBOLT_001728,REVOS,REVOS,"Matiala, Delhi, 110078",28.6086865,77.0494577,Delhi,India,00:00:00,00:00:00,https://ev.delhitransport.in/static/logo/revos.png,Unstaffed,UPI,"[""+918884890060""]",charging,110078,west-delhi,,1,3.3 kW,₹0 per unit,AC,1,5A/15A Socket,"['2W', '3W']"
REVBOLT_004072,REVOS,REVOS,"Matiala, Delhi, 110078",28.6086865,77.0494577,Delhi,India,00:00:00,00:00:00,https://ev.delhitransport.in/static/logo/revos.png,Unstaffed,UPI,"[""+918884890060""]",charging,110078,west-delhi,,1,3.3 kW,₹0 per unit,AC,1,5A/15A Socket,"['2W', '3W']"
REVBOLT_004261,REVOS,REVOS,"Matiala, Delhi, 110078",28.6086865,77.0494577,Delhi,India,00:00:00,00:00:00,https://ev.delhitransport.in/static/logo/revos.png,Unstaffed,UPI,"[""+918884890060""]",charging,110078,west-delhi,,1,3.3 kW,₹0 per unit,AC,1,5A/15A Socket,"['2W', '3W']"
REVBOLT_004581,REVOS,REVOS,"Matiala, Delhi, 110078",28.6086865,77.0494577,Delhi,India,00:00:00,00:00:00,https://ev.delhitransport.in/static/logo/revos.png,Unstaffed,UPI,"[""+918884890060""]",charging,110078,west-delhi,,1,3.3 kW,₹0 per unit,AC,1,5A/15A Socket,"['2W', '3W']"
REVBOLT_003439,REVOS,REVOS,"Matiala, Delhi, 110078",28.6086865,77.0494577,Delhi,India,00:00:00,00:00:00,https://ev.delhitransport.in/static/logo/revos.png,Unstaffed,UPI,"[""+918884890060""]",charging,110078,west-delhi,,1,3.3 kW,₹0 per unit,AC,1,5A/15A Socket,"['2W', '3W']"
REVBOLT_003522,REVOS,REVOS,"Matiala, Delhi, 110078",28.6086865,77.0494577,Delhi,India,00:00:00,00:00:00,https://ev.delhitransport.in/static/logo/revos.png,Unstaffed,UPI,"[""+918884890060""]",charging,110078,west-delhi,,1,3.3 kW,₹0 per unit,AC,1,5A/15A Socket,"['2W', '3W']"
REVBOLT_003266,REVOS,REVOS,"Pocket E Sarita Vihar, Sarita Vihar, New Delhi, Delhi 110076",28.52893411,77.29266727,New Delhi,India,00:00:00,00:00:00,https://ev.delhitransport.in/static/logo/revos.png,Unstaffed,UPI,"[""+918884890060""]",charging,110076,south-delhi,,1,3.3 kW,₹0 per unit,AC,1,5A/15A Socket,"['2W', '3W']"
REVBOLT_002842,REVOS,REVOS,"473, Britannia Rd, Tri Nagar, Delhi, 110034",28.6807207,77.1553153,Delhi,India,00:00:00,00:00:00,https://ev.delhitransport.in/static/logo/revos.png,Unstaffed,UPI,"[""+918884890060""]",charging,110034,north-west-delhi,,1,3.3 kW,₹0 per unit,AC,1,5A/15A Socket,"['2W', '3W']"
REVBOLT_003671,REVOS,REVOS,"7882, Dina nath road, kharian mohalla new delhi",28.66985066,77.20183767,Delhi,India,00:00:00,00:00:00,https://ev.delhitransport.in/static/logo/revos.png,Unstaffed,UPI,"[""+19968375919""]",charging,110007,north-delhi,,1,3.3 kW,₹0 per unit,AC,1,5A/15A Socket,"['2W', '3W']"
REVBOLT_004437,REVOS,REVOS,Shop No.1 Ad Market Near Kalyani Mandir Shalimar Bagh,28.71969032,77.16101837,Delhi,India,00:00:00,00:00:00,https://ev.delhitransport.in/static/logo/revos.png,Unstaffed,UPI,"[""+919811300560""]",charging,110088,north-west-delhi,,1,3.3 kW,₹0 per unit,AC,1,5A/15A Socket,"['2W', '3W']"
REVBOLT_004577,REVOS,REVOS,"Nithari Chowk, Fauji Vatika, ShivRam Pan Bhandar
Kirari Suleman Nagar, Delhi-110086",28.70433426,77.05381012,Delhi,India,00:00:00,00:00:00,https://ev.delhitransport.in/static/logo/revos.png,Unstaffed,UPI,"[""+917042111142""]",charging,110086,north-west-delhi,,1,3.3 kW,₹0 per unit,AC,1,5A/15A Socket,"['2W', '3W']"
REVBOLT_003754,REVOS,REVOS,scope minar PNB Bank,28.63866234,77.28507233,Delhi,India,00:00:00,00:00:00,https://ev.delhitransport.in/static/logo/revos.png,Unstaffed,UPI,"[""+919131465902""]",charging,110092,east-delhi,,1,3.3 kW,₹0 per unit,AC,1,5A/15A Socket,"['2W', '3W']"
REVBOLT_004781,REVOS,REVOS,Pocket 3 Sector 23 Rohini Delhi,28.72094038,77.08018072,New Delhi,India,00:00:00,00:00:00,https://ev.delhitransport.in/static/logo/revos.png,Unstaffed,UPI,"[""+919891817151""]",charging,110041,west-delhi,,1,3.3 kW,₹0 per unit,AC,1,5A/15A Socket,"['2W', '3W']"
REVBOLT_003817,REVOS,REVOS,"557 A, G. T. Road ,Shahdara,Delhi-110032",28.67612073,77.29546957,New Delhi,India,00:00:00,00:00:00,https://ev.delhitransport.in/static/logo/revos.png,Unstaffed,UPI,"[""+919810089874""]",charging,110032,east-delhi,,1,3.3 kW,₹0 per unit,AC,1,5A/15A Socket,"['2W', '3W']"
REVBOLT_004099,REVOS,REVOS,Pocket 3 Sector 23 Rohini Delhi,28.72184686,77.07882117,Delhi,India,00:00:00,00:00:00,https://ev.delhitransport.in/static/logo/revos.png,Unstaffed,UPI,"[""+919891817151""]",charging,110085,north-delhi,,1,3.3 kW,₹0 per unit,AC,1,5A/15A Socket,"['2W', '3W']"
REVBOLT_004485,REVOS,REVOS,"plot no-1,khasra no-768/1, siraspur",28.7605629,77.12641144,Delhi,India,00:00:00,00:00:00,https://ev.delhitransport.in/static/logo/revos.png,Unstaffed,UPI,"[""+919990406300""]",charging,110042,north-west-delhi,,1,3.3 kW,₹0 per unit,AC,1,5A/15A Socket,"['2W', '3W']"
REVBOLT_002867,REVOS,REVOS,"Birla Farm, Opp JVTS Garden Gate, Chattarpur Extension, New Delhi 110074",28.49223709,77.1804657,New Delhi,India,00:00:00,00:00:00,https://ev.delhitransport.in/static/logo/revos.png,Unstaffed,UPI,"[""+918368681769""]",charging,110074,south-west-delhi,,1,3.3 kW,₹0 per unit,AC,1,5A/15A Socket,"['2W', '3W']"
REVBOLT_003581,REVOS,REVOS,"Garud Automobiles  pillar no 748, near Nawada metro station",28.61999686,77.04063691,Delhi,India,00:00:00,00:00:00,https://ev.delhitransport.in/static/logo/revos.png,Unstaffed,UPI,"[""+918744070664""]",charging,110059,west-delhi,,1,3.3 kW,₹0 per unit,AC,1,5A/15A Socket,"['2W', '3W']"
REVBOLT_003669,REVOS,REVOS,"Garud Automobiles  pillar no 748, near nawada metro station",28.62021141,77.04068687,Delhi,India,00:00:00,00:00:00,https://ev.delhitransport.in/static/logo/revos.png,Unstaffed,UPI,"[""87""]",charging,110059,west-delhi,,1,3.3 kW,₹0 per unit,AC,1,5A/15A Socket,"['2W', '3W']"
REVBOLT_003399,REVOS,REVOS,"shop no.2, harphool singh building ,clock tower, subzi mandi, delhi",28.67531798,77.20184237,Delhi,India,00:00:00,00:00:00,https://ev.delhitransport.in/static/logo/revos.png,Unstaffed,UPI,"[""+919716789665""]",charging,110007,north-delhi,,1,3.3 kW,₹0 per unit,AC,1,5A/15A Socket,"['2W', '3W']"
REVBOLT_004006,REVOS,REVOS,2466 roshnara road subzi mandi delhi,28.6725823,77.20176391,New Delhi,India,00:00:00,00:00:00,https://ev.delhitransport.in/static/logo/revos.png,Unstaffed,UPI,"[""+918368889724""]",charging,110007,north-delhi,,1,3.3 kW,₹0 per unit,AC,1,5A/15A Socket,"['2W', '3W']"
REVBOLT_004010,REVOS,REVOS,2466 roshnara road subzi mandi delhi 110007,28.67339183,77.20184673,Delhi,India,00:00:00,00:00:00,https://ev.delhitransport.in/static/logo/revos.png,Unstaffed,UPI,"[""+918368889724""]",charging,110007,north-delhi,,1,3.3 kW,₹0 per unit,AC,1,5A/15A Socket,"['2W', '3W']"
REVBOLT_003352,REVOS,REVOS,"E -12, ground floor, Lajpat Nagar 1, New Delhi 110024",28.5733477,77.2372255,New Delhi,India,00:00:00,00:00:00,https://ev.delhitransport.in/static/logo/revos.png,Unstaffed,UPI,"[""+918884890060""]",charging,110024,south-delhi,,1,3.3 kW,₹0 per unit,AC,1,5A/15A Socket,"['2W', '3W']"
REVBOLT_003583,REVOS,REVOS,"B 60, DDA Colony, New jafrabad,Delhi",28.6844764,77.27970019,New Delhi,India,00:00:00,00:00:00,https://ev.delhitransport.in/static/logo/revos.png,Unstaffed,UPI,"[""+919555054609""]",charging,110032,east-delhi,,1,3.3 kW,₹0 per unit,AC,1,5A/15A Socket,"['2W', '3W']"
REVBOLT_003584,REVOS,REVOS,"B60, DDA Colony, New Jafrabad Delhi",28.68446905,77.27958653,New Delhi,India,00:00:00,00:00:00,https://ev.delhitransport.in/static/logo/revos.png,Unstaffed,UPI,"[""+919555054609""]",charging,110032,east-delhi,,1,3.3 kW,₹0 per unit,AC,1,5A/15A Socket,"['2W', '3W']"
REVBOLT_005616,REVOS,REVOS,"h. no. 830, st. no. 30, indra chowk, jafrabad",28.68045351,77.27150537,Delhi,India,00:00:00,00:00:00,https://ev.delhitransport.in/static/logo/revos.png,Unstaffed,UPI,"[""+919716358677""]",charging,110053,east-delhi,,1,3.3 kW,₹0 per unit,AC,1,5A/15A Socket,"['2W', '3W']"
REVBOLT_004164,REVOS,REVOS,C-147 20 futa road meet Nagar Delhi 110093,28.70416919,77.30096374,New Delhi,India,00:00:00,00:00:00,https://ev.delhitransport.in/static/logo/revos.png,Unstaffed,UPI,"[""+919625334488""]",charging,110093,east-delhi,,1,3.3 kW,₹0 per unit,AC,1,5A/15A Socket,"['2W', '3W']"
REVBOLT_004496,REVOS,REVOS,"E -12, ground floor, Lajpat Nagar 1, New Delhi 110024",28.5733477,77.2372255,New Delhi,India,00:00:00,00:00:00,https://ev.delhitransport.in/static/logo/revos.png,Unstaffed,UPI,"[""+918884890060""]",charging,110024,south-delhi,,1,3.3 kW,₹0 per unit,AC,1,5A/15A Socket,"['2W', '3W']"
REVBOLT_004751,REVOS,REVOS,"E -12, ground floor, Lajpat Nagar 1, New Delhi 110024",28.5733477,77.2372255,New Delhi,India,00:00:00,00:00:00,https://ev.delhitransport.in/static/logo/revos.png,Unstaffed,UPI,"[""+918884890060""]",charging,110024,south-delhi,,1,3.3 kW,₹0 per unit,AC,1,5A/15A Socket,"['2W', '3W']"
REVBOLT_002930,REVOS,REVOS,"E -12, ground floor, Lajpat Nagar 1, New Delhi 110024",28.5733477,77.2372255,New Delhi,India,00:00:00,00:00:00,https://ev.delhitransport.in/static/logo/revos.png,Unstaffed,UPI,"[""+918884890060""]",charging,110024,south-delhi,,1,3.3 kW,₹0 per unit,AC,1,5A/15A Socket,"['2W', '3W']"
REVBOLT_003097,REVOS,REVOS,"E -12, ground floor, Lajpat Nagar 1, New Delhi 110024",28.5733477,77.2372255,New Delhi,India,00:00:00,00:00:00,https://ev.delhitransport.in/static/logo/revos.png,Unstaffed,UPI,"[""+918884890060""]",charging,110024,south-delhi,,1,3.3 kW,₹0 per unit,AC,1,5A/15A Socket,"['2W', '3W']"
REVBOLT_004244,REVOS,REVOS,"E -12, ground floor, Lajpat Nagar 1, New Delhi 110024",28.5733477,77.2372255,New Delhi,India,00:00:00,00:00:00,https://ev.delhitransport.in/static/logo/revos.png,Unstaffed,UPI,"[""+918884890060""]",charging,110024,south-delhi,,1,3.3 kW,₹0 per unit,AC,1,5A/15A Socket,"['2W', '3W']"
REVBOLT_003484,REVOS,REVOS,A 59 Gali No 6 Suraj Park Delhi 110042,28.74341077,77.13558242,New Delhi,India,00:00:00,00:00:00,https://ev.delhitransport.in/static/logo/revos.png,Unstaffed,UPI,"[""+917838890577""]",charging,110089,north-west-delhi,,1,3.3 kW,₹0 per unit,AC,1,5A/15A Socket,"['2W', '3W']"
REVBOLT_005071,REVOS,REVOS,baldev vihar delhi,28.73840796,77.04190291,Delhi,India,00:00:00,00:00:00,https://ev.delhitransport.in/static/logo/revos.png,Unstaffed,UPI,"[""+919968231096""]",charging,110081,north-west-delhi,,1,3.3 kW,₹0 per unit,AC,1,5A/15A Socket,"['2W', '3W']"
REVBOLT_003855,REVOS,REVOS,kondli sabzi Mandi chowk near agrawal sweets shop name  Ali store Delhi 110096,28.61441893,77.32622478,New Delhi,India,00:00:00,00:00:00,https://ev.delhitransport.in/static/logo/revos.png,Unstaffed,UPI,"[""+918130389811""]",charging,110096,east-delhi,,1,3.3 kW,₹0 per unit,AC,1,5A/15A Socket,"['2W', '3W']"
REVBOLT_00006072,REVOS,REVOS,124 A Basement K.H.No.-45/22 Baporla Vihar village Bazorla Near Kalawati school NEW DELHI 110043,28.63543892,77.01615906,Delhi,India,00:00:00,00:00:00,https://ev.delhitransport.in/static/logo/revos.png,Unstaffed,UPI,"[""+917011544827""]",charging,110043,south-west-delhi,,1,3.3 kW,₹0 per unit,AC,1,5A/15A Socket,"['2W', '3W']"
REVBOLT_003926,REVOS,REVOS,Apex Graphics 12A/52A Road no 66 near crispers food maujpur delhi 110053,28.68467553,77.27531042,Delhi,India,00:00:00,00:00:00,https://ev.delhitransport.in/static/logo/revos.png,Unstaffed,UPI,"[""+1919899213210""]",charging,110053,east-delhi,,1,3.3 kW,₹0 per unit,AC,1,5A/15A Socket,"['2W', '3W']"
REVBOLT_004777,REVOS,REVOS,12A/52A Road no.66 near crispers food maujur delhi 110053,28.68466671,77.275296,Delhi,India,00:00:00,00:00:00,https://ev.delhitransport.in/static/logo/revos.png,Unstaffed,UPI,"[""+1919899213210""]",charging,110053,east-delhi,,1,3.3 kW,₹0 per unit,AC,1,5A/15A Socket,"['2W', '3W']"
REVBOLT_004438,REVOS,REVOS,12A/52A Road no.66 near crispers food maujur delhi 110053,28.68468259,77.2753007,Delhi,India,00:00:00,00:00:00,https://ev.delhitransport.in/static/logo/revos.png,Unstaffed,UPI,"[""+1919899213210""]",charging,110053,east-delhi,,1,3.3 kW,₹0 per unit,AC,1,5A/15A Socket,"['2W', '3W']"
REVBOLT_00009635,REVOS,REVOS,H-6/9 malviya nagar new delhi-110017,28.53049088,77.20983887,New Delhi,India,00:00:00,00:00:00,https://ev.delhitransport.in/static/logo/revos.png,Unstaffed,UPI,"[""+918368249696""]",charging,110017,south-delhi,,1,3.3 kW,₹0 per unit,AC,1,5A/15A Socket,"['2W', '3W']"
REVBOLT_003668,REVOS,REVOS,"WS-94, Gali No. 3, BudhBazaar Road, Sudamapuri, Babarpur, Shahdara, Delhi 110032",28.68622352,77.27716215,Delhi,India,00:00:00,00:00:00,https://ev.delhitransport.in/static/logo/revos.png,Unstaffed,UPI,"[""+919810298369""]",charging,110032,east-delhi,,1,3.3 kW,₹0 per unit,AC,1,5A/15A Socket,"['2W', '3W']"
REVBOLT_004522,REVOS,REVOS,"WS-94, Gali No 3, BudhBazaar Road, Sudamapuri, Babarpur, Shahdara, Delhi 110032",28.68600146,77.27704782,New Delhi,India,00:00:00,00:00:00,https://ev.delhitransport.in/static/logo/revos.png,Unstaffed,UPI,"[""+919810298369""]",charging,110032,east-delhi,,1,3.3 kW,₹0 per unit,AC,1,5A/15A Socket,"['2W', '3W']"
REVBOLT_003667,REVOS,REVOS,"WS-94, Gali No 3, BudhBazaar Road, Sudamapuri, Babarpur, Shahdara, Delhi 1110032",28.68602852,77.27698278,New Delhi,India,00:00:00,00:00:00,https://ev.delhitransport.in/static/logo/revos.png,Unstaffed,UPI,"[""+919810298369""]",charging,110032,east-delhi,,1,3.3 kW,₹0 per unit,AC,1,5A/15A Socket,"['2W', '3W']"
REVBOLT_005093,REVOS,REVOS,"169, Dharampura, Najafgarh, New Delhi  - 110043",28.60337287,76.98919885,New Delhi,India,00:00:00,00:00:00,https://ev.delhitransport.in/static/logo/revos.png,Unstaffed,UPI,"[""+919015100567""]",charging,110043,south-west-delhi,,1,3.3 kW,₹0 per unit,AC,1,5A/15A Socket,"['2W', '3W']"
REVBOLT_00006091,REVOS,REVOS,k 27 Gali no. 10 pipal wala road Mohan Garden Uttam Nagar New Delhi 110059,28.62709999,77.03813934,Delhi,India,00:00:00,00:00:00,https://ev.delhitransport.in/static/logo/revos.png,Unstaffed,UPI,"[""+919540659396""]",charging,110059,west-delhi,,1,3.3 kW,₹0 per unit,AC,1,5A/15A Socket,"['2W', '3W']"
REVBOLT_004360,REVOS,REVOS,"4 west laxmi market,  khureji,  delhi -51",28.64419556,77.27931213,New Delhi,India,00:00:00,00:00:00,https://ev.delhitransport.in/static/logo/revos.png,Unstaffed,UPI,"[""+919582174864""]",charging,110031,east-delhi,,1,3.3 kW,₹0 per unit,AC,1,5A/15A Socket,"['2W', '3W']"
REVBOLT_003504,REVOS,REVOS,"w_49 pvc market , pashim vihar",28.67300442,77.07943205,Delhi,India,00:00:00,00:00:00,https://ev.delhitransport.in/static/logo/revos.png,Unstaffed,UPI,"[""+919999774434""]",charging,110087,west-delhi,,1,3.3 kW,₹0 per unit,AC,1,5A/15A Socket,"['2W', '3W']"
REVBOLT_00006859,REVOS,REVOS,a-27 gali no 3 mahamaya kunj opposite S.R convent school,28.71754265,77.31545258,Delhi,India,00:00:00,00:00:00,https://ev.delhitransport.in/static/logo/revos.png,Unstaffed,UPI,"[""+918178233469""]",charging,201102,,,1,3.3 kW,₹0 per unit,AC,1,5A/15A Socket,"['2W', '3W']"
REVBOLT_004949,REVOS,REVOS,555/1 karkari road viswash nagar,28.66626201,77.29366343,Delhi,India,00:00:00,00:00:00,https://ev.delhitransport.in/static/logo/revos.png,Unstaffed,UPI,"[""+919756297397""]",charging,110032,east-delhi,,1,3.3 kW,₹0 per unit,AC,1,5A/15A Socket,"['2W', '3W']"
REVBOLT_00008506,REVOS,REVOS,wz-1 basai road  pankha market opp metro piller no. 322 basai road,28.65641975,77.13890839,New Delhi,India,00:00:00,00:00:00,https://ev.delhitransport.in/static/logo/revos.png,Unstaffed,UPI,"[""+919654255525""]",charging,110015,west-delhi,,1,3.3 kW,₹0 per unit,AC,1,5A/15A Socket,"['2W', '3W']"
REVBOLT_004950,REVOS,REVOS,C-1/207 harsh vihar near lal mandir 110093,28.70132516,77.32207876,Delhi,India,00:00:00,00:00:00,https://ev.delhitransport.in/static/logo/revos.png,Unstaffed,UPI,"[""+919250239044""]",charging,110093,east-delhi,,1,3.3 kW,₹0 per unit,AC,1,5A/15A Socket,"['2W', '3W']"
REVBOLT_004607,REVOS,REVOS,C1/207 Harsh vihar Delhi 93,28.70135809,77.32221488,Delhi,India,00:00:00,00:00:00,https://ev.delhitransport.in/static/logo/revos.png,Unstaffed,UPI,"[""+919250239044""]",charging,110093,east-delhi,,1,3.3 kW,₹0 per unit,AC,1,5A/15A Socket,"['2W', '3W']"
REVBOLT_004864,REVOS,REVOS,C1/207 Harsh vihar Delhi 93,28.70122576,77.32190207,Delhi,India,00:00:00,00:00:00,https://ev.delhitransport.in/static/logo/revos.png,Unstaffed,UPI,"[""+919250239044""]",charging,110093,east-delhi,,1,3.3 kW,₹0 per unit,AC,1,5A/15A Socket,"['2W', '3W']"
REVBOLT_00006323,REVOS,REVOS,A-7 Jawahar Park,28.5077877,77.23187256,New Delhi,India,00:00:00,00:00:00,https://ev.delhitransport.in/static/logo/revos.png,Unstaffed,UPI,"[""+919354487653""]",charging,110062,south-delhi,,1,3.3 kW,₹0 per unit,AC,1,5A/15A Socket,"['2W', '3W']"
REVBOLT_00010567,REVOS,REVOS,RZ-49/256 GALI NO.3 DAYAL PARK NEAR MCD SCHOOL,28.60541916,77.09593201,New Delhi,India,00:00:00,00:00:00,https://ev.delhitransport.in/static/logo/revos.png,Unstaffed,UPI,"[""+918802998847""]",charging,110046,south-west-delhi,,1,3.3 kW,₹0 per unit,AC,1,5A/15A Socket,"['2W', '3W']"
REVBOLT_00010662,REVOS,REVOS,shop No 18  Main Chowk Budhpur Delhi 110036,28.78146172,77.13755035,Delhi,India,00:00:00,00:00:00,https://ev.delhitransport.in/static/logo/revos.png,Unstaffed,UPI,"[""+917011903466""]",charging,110036,north-west-delhi,,1,3.3 kW,₹0 per unit,AC,1,5A/15A Socket,"['2W', '3W']"
REVBOLT_004692,REVOS,REVOS,sing Shbha rod Saktinagar 5/4  car max Amba chimera,28.6757679,77.19913483,Delhi,India,00:00:00,00:00:00,https://ev.delhitransport.in/static/logo/revos.png,Unstaffed,UPI,"[""+919873947327""]",charging,110007,north-delhi,,1,3.3 kW,₹0 per unit,AC,1,5A/15A Socket,"['2W', '3W']"
REVBOLT_003230,REVOS,REVOS,D 70 Guru Nanak Dev Colony Bhalswa dairy near shiv chowk Delhi 110042,28.75060117,77.17734542,Delhi,India,00:00:00,00:00:00,https://ev.delhitransport.in/static/logo/revos.png,Unstaffed,UPI,"[""+919213441794""]",charging,110084,north-delhi,,1,3.3 kW,₹0 per unit,AC,1,5A/15A Socket,"['2W', '3W']"
REVBOLT_00009430,REVOS,REVOS,19/5 laxmi vihar jain road,28.62421989,77.03128815,Delhi,India,00:00:00,00:00:00,https://ev.delhitransport.in/static/logo/revos.png,Unstaffed,UPI,"[""+919958646597""]",charging,110059,west-delhi,,1,3.3 kW,₹0 per unit,AC,1,5A/15A Socket,"['2W', '3W']"
REVBOLT_004694,REVOS,REVOS,"Dwarka More,opp metro pillar no -792 near Tarak Hospital, New Delhi-110059",28.61928698,77.02931732,Delhi,India,00:00:00,00:00:00,https://ev.delhitransport.in/static/logo/revos.png,Unstaffed,UPI,"[""01141414186""]",charging,110059,west-delhi,,1,3.3 kW,₹0 per unit,AC,1,5A/15A Socket,"['2W', '3W']"
REVBOLT_00008819,REVOS,REVOS,"D-272, Parking, Sarvodaya Enclave, New Delhi - 110017",28.53733063,77.20365143,New Delhi,India,00:00:00,00:00:00,https://ev.delhitransport.in/static/logo/revos.png,Unstaffed,UPI,"[""+919599123584""]",charging,110017,south-delhi,,1,3.3 kW,₹0 per unit,AC,1,5A/15A Socket,"['2W', '3W']"
REVBOLT_00008330,REVOS,REVOS,"D-39, Gali No.-5, New Shyam Nagar, Tilak Nagar, West Delhi, Delhi-110018",28.64422989,77.10652161,New Delhi,India,00:00:00,00:00:00,https://ev.delhitransport.in/static/logo/revos.png,Unstaffed,UPI,"[""+919289044497""]",charging,110018,west-delhi,,1,3.3 kW,₹0 per unit,AC,1,5A/15A Socket,"['2W', '3W']"
REVBOLT_00008688,REVOS,REVOS,67 Radhey Shyam Park Parwana Road Delhi,28.64670753,77.28715515,Delhi,India,00:00:00,00:00:00,https://ev.delhitransport.in/static/logo/revos.png,Unstaffed,UPI,"[""+919899646407""]",charging,110051,east-delhi,,1,3.3 kW,₹0 per unit,AC,1,5A/15A Socket,"['2W', '3W']"
REVBOLT_00010244,REVOS,REVOS,M-358 chander shekhar azad colony kishan Ganj,28.66684914,77.19516754,New Delhi,India,00:00:00,00:00:00,https://ev.delhitransport.in/static/logo/revos.png,Unstaffed,UPI,"[""+919999053455""]",charging,110007,north-delhi,,1,3.3 kW,₹0 per unit,AC,1,5A/15A Socket,"['2W', '3W']"
REVBOLT_004269,REVOS,REVOS,Main road brijpuri phase-1 near brijpuri puliya Sony medical Delhi  110094,28.7083135,77.27658212,Delhi,India,00:00:00,00:00:00,https://ev.delhitransport.in/static/logo/revos.png,Unstaffed,UPI,"[""+19711973637""]",charging,110094,north-east-delhi,,1,3.3 kW,₹0 per unit,AC,1,5A/15A Socket,"['2W', '3W']"
REVBOLT_004267,REVOS,REVOS,Main road brijpuri phase-1 near brijpuri puliya Sony medical Delhi  110094,28.70830468,77.27657374,Delhi,India,00:00:00,00:00:00,https://ev.delhitransport.in/static/logo/revos.png,Unstaffed,UPI,"[""+19711973637""]",charging,110094,north-east-delhi,,1,3.3 kW,₹0 per unit,AC,1,5A/15A Socket,"['2W', '3W']"
REVBOLT_003837,REVOS,REVOS,Main road brijpuri phase-1 near brijpuri puliya Sony medical Delhi  110094,28.70832938,77.2765734,Delhi,India,00:00:00,00:00:00,https://ev.delhitransport.in/static/logo/revos.png,Unstaffed,UPI,"[""+19711973637""]",charging,110094,north-east-delhi,,1,3.3 kW,₹0 per unit,AC,1,5A/15A Socket,"['2W', '3W']"
REVBOLT_004946,REVOS,REVOS,"F151 naveen shahdara PANCHHEEL Garden

Delhi",28.67668256,77.27983128,Delhi,India,00:00:00,00:00:00,https://ev.delhitransport.in/static/logo/revos.png,Unstaffed,UPI,"[""+919560813455""]",charging,110031,east-delhi,,1,3.3 kW,₹0 per unit,AC,1,5A/15A Socket,"['2W', '3W']"
REVBOLT_003675,REVOS,REVOS,"car, Market Kishan Garh Vasant Kunj New Delhi 110070",28.51480117,77.16435112,New Delhi,India,00:00:00,00:00:00,https://ev.delhitransport.in/static/logo/revos.png,Unstaffed,UPI,"[""+919971787447""]",charging,110070,south-west-delhi,,1,3.3 kW,₹0 per unit,AC,1,5A/15A Socket,"['2W', '3W']"
REVBOLT_00010516,REVOS,REVOS,A-113 inderpuri new delhi 12,28.62766514,77.14761246,New Delhi,India,00:00:00,00:00:00,https://ev.delhitransport.in/static/logo/revos.png,Unstaffed,UPI,"[""+918585913275""]",charging,110028,south-west-delhi,,1,3.3 kW,₹0 per unit,AC,1,5A/15A Socket,"['2W', '3W']"
REVBOLT_00007091,REVOS,REVOS,"house no 47, gali no 9, G-2, sai enclave mohan garden uttam nagar new delhi",28.6420269,77.03659821,Delhi,India,00:00:00,00:00:00,https://ev.delhitransport.in/static/logo/revos.png,Unstaffed,UPI,"[""+919716246610""]",charging,110059,west-delhi,,1,3.3 kW,₹0 per unit,AC,1,5A/15A Socket,"['2W', '3W']"
REVBOLT_004353,REVOS,REVOS,10/114 Subhash gali  60 feeta  Road Vishwas nagar shahdra  Delhi 110032,28.66736254,77.29915392,New Delhi,India,00:00:00,00:00:00,https://ev.delhitransport.in/static/logo/revos.png,Unstaffed,UPI,"[""+919560521982""]",charging,110032,east-delhi,,1,3.3 kW,₹0 per unit,AC,1,5A/15A Socket,"['2W', '3W']"
REVBOLT_004436,REVOS,REVOS,10/114 Subhash gali 60 feeta Road vishwas nagar shahdra Delhi 110032,28.66735989,77.29913749,New Delhi,India,00:00:00,00:00:00,https://ev.delhitransport.in/static/logo/revos.png,Unstaffed,UPI,"[""+919560521982""]",charging,110032,east-delhi,,1,3.3 kW,₹0 per unit,AC,1,5A/15A Socket,"['2W', '3W']"
REVBOLT_003247,REVOS,REVOS,a/86 meet nagar main mangal bazar road delhi 110094,28.70269528,77.29640499,New Delhi,India,00:00:00,00:00:00,https://ev.delhitransport.in/static/logo/revos.png,Unstaffed,UPI,"[""+918700932505""]",charging,110093,east-delhi,,1,3.3 kW,₹0 per unit,AC,1,5A/15A Socket,"['2W', '3W']"
REVBOLT_003673,REVOS,REVOS,10/114 subhash gali 60 feet road vishwas nagar shahdra Delhi 110032,28.66733341,77.29918107,New Delhi,India,00:00:00,00:00:00,https://ev.delhitransport.in/static/logo/revos.png,Unstaffed,UPI,"[""+919560521982""]",charging,110032,east-delhi,,1,3.3 kW,₹0 per unit,AC,1,5A/15A Socket,"['2W', '3W']"
REVBOLT_001455,REVOS,REVOS,"Sanjay Colony II, Sanjay Colony, Okhla Phase II, Okhla Industrial Estate, New Delhi, Delhi 110020",28.54132462,77.27557373,New Delhi,India,00:00:00,00:00:00,https://ev.delhitransport.in/static/logo/revos.png,Unstaffed,UPI,"[""+918884890060""]",charging,110020,south-delhi,,1,3.3 kW,₹0 per unit,AC,1,5A/15A Socket,"['2W', '3W']"
REVBOLT_005374,REVOS,REVOS,10/114 Subhash gali  60 feeta Road Vishwas nagar shahdra Delhi  110032,28.66738519,77.2991861,New Delhi,India,00:00:00,00:00:00,https://ev.delhitransport.in/static/logo/revos.png,Unstaffed,UPI,"[""+919560521982""]",charging,110032,east-delhi,,1,3.3 kW,₹0 per unit,AC,1,5A/15A Socket,"['2W', '3W']"
REVBOLT_004352,REVOS,REVOS,19/114 Subhash gali 60 feeta Road Vishwas nagar shahdra Delhi 110032,28.66738048,77.29915995,New Delhi,India,00:00:00,00:00:00,https://ev.delhitransport.in/static/logo/revos.png,Unstaffed,UPI,"[""+919560521982""]",charging,110032,east-delhi,,1,3.3 kW,₹0 per unit,AC,1,5A/15A Socket,"['2W', '3W']"
REVBOLT_00007243,REVOS,REVOS,Plot no182 chand nagar,28.64825541,77.09636517,Delhi,India,00:00:00,00:00:00,https://ev.delhitransport.in/static/logo/revos.png,Unstaffed,UPI,"[""+919211115474""]",charging,110018,west-delhi,,1,3.3 kW,₹0 per unit,AC,1,5A/15A Socket,"['2W', '3W']"
REVBOLT_004100,REVOS,REVOS,w4 opposite kalkaji depot govindpuri,28.53841348,77.2666841,New Delhi,India,00:00:00,00:00:00,https://ev.delhitransport.in/static/logo/revos.png,Unstaffed,UPI,"[""+919555875586""]",charging,110019,south-delhi,,1,3.3 kW,₹0 per unit,AC,1,5A/15A Socket,"['2W', '3W']"
REVBOLT_004098,REVOS,REVOS,w4 opposite kalkaji depot govindpuri,28.53834161,77.266667,New Delhi,India,00:00:00,00:00:00,https://ev.delhitransport.in/static/logo/revos.png,Unstaffed,UPI,"[""+919555875586""]",charging,110019,south-delhi,,1,3.3 kW,₹0 per unit,AC,1,5A/15A Socket,"['2W', '3W']"
REVBOLT_00010731,REVOS,REVOS,"TA-327, TUGHLAKABAD EXTENSION, OKHLA MAIN ROAD. NEW DELHI 110019.",28.52580969,77.26032089,New Delhi,India,00:00:00,00:00:00,https://ev.delhitransport.in/static/logo/revos.png,Unstaffed,UPI,"[""+919999699578""]",charging,110019,south-delhi,,1,3.3 kW,₹0 per unit,AC,1,5A/15A Socket,"['2W', '3W']"
REVBOLT_00010158,REVOS,REVOS,f 53 Rajiv Nagar begumpur village New Delhi,28.72836876,77.0560379,Delhi,India,00:00:00,00:00:00,https://ev.delhitransport.in/static/logo/revos.png,Unstaffed,UPI,"[""+919625229556""]",charging,110081,north-west-delhi,,1,3.3 kW,₹0 per unit,AC,1,5A/15A Socket,"['2W', '3W']"
REVBOLT_00008082,REVOS,REVOS,shop no. 22 gali no. 4d aram park shastri nagar Delhi 110031,28.64384626,77.27812976,New Delhi,India,00:00:00,00:00:00,https://ev.delhitransport.in/static/logo/revos.png,Unstaffed,UPI,"[""+919818905994""]",charging,110031,east-delhi,,1,3.3 kW,₹0 per unit,AC,1,5A/15A Socket,"['2W', '3W']"
REVBOLT_00007772,REVOS,REVOS,"plot no 98, gali no 1, niyadar enclave, near sunday market road, Vikas nagar, uttam nagar new delhi- 110059",28.64476967,77.03697968,New Delhi,India,00:00:00,00:00:00,https://ev.delhitransport.in/static/logo/revos.png,Unstaffed,UPI,"[""+917503539360""]",charging,110059,west-delhi,,1,3.3 kW,₹0 per unit,AC,1,5A/15A Socket,"['2W', '3W']"
REVBOLT_003863,REVOS,REVOS,"Shop no.12 DDA market jg-2 block , Vikas Puri , new Delhi -110018",28.64346886,77.08109283,Delhi,India,00:00:00,00:00:00,https://ev.delhitransport.in/static/logo/revos.png,Unstaffed,UPI,"[""+918368332477""]",charging,110018,west-delhi,,1,3.3 kW,₹0 per unit,AC,1,5A/15A Socket,"['2W', '3W']"
REVBOLT_00010007,REVOS,REVOS,badarpur,28.49940693,77.30068713,New Delhi,India,00:00:00,00:00:00,https://ev.delhitransport.in/static/logo/revos.png,Unstaffed,UPI,"[""+918285168487""]",charging,110044,south-delhi,,1,3.3 kW,₹0 per unit,AC,1,5A/15A Socket,"['2W', '3W']"
REVBOLT_005937,REVOS,REVOS,E 20  Indira Enclave man Loni road metro Pilar no 39_40 gzb up,28.71508789,77.28965759,Delhi,India,00:00:00,00:00:00,https://ev.delhitransport.in/static/logo/revos.png,Unstaffed,UPI,"[""+919250607076""]",charging,201102,,,1,3.3 kW,₹0 per unit,AC,1,5A/15A Socket,"['2W', '3W']"
REVBOLT_004351,REVOS,REVOS,E 20 Indra Enclave Loni road metro pillar no 39-40 gzb up,28.71511459,77.28968048,Delhi,India,00:00:00,00:00:00,https://ev.delhitransport.in/static/logo/revos.png,Unstaffed,UPI,"[""+919250607076""]",charging,201102,,,1,3.3 kW,₹0 per unit,AC,1,5A/15A Socket,"['2W', '3W']"
REVBOLT_003249,REVOS,REVOS,"E 4 Indira enclave main Loni road metro pillar number_44
 Ghaziabad Uttar Pradesh",28.71607088,77.28977557,Delhi,India,00:00:00,00:00:00,https://ev.delhitransport.in/static/logo/revos.png,Unstaffed,UPI,"[""99718728271""]",charging,201102,,,1,3.3 kW,₹0 per unit,AC,1,5A/15A Socket,"['2W', '3W']"
REVBOLT_005942,REVOS,REVOS,E-20 Indira enclave main Loni road metro Pilar no 39-40 gzb up,28.71510696,77.28966522,Delhi,India,00:00:00,00:00:00,https://ev.delhitransport.in/static/logo/revos.png,Unstaffed,UPI,"[""+919250607076""]",charging,201102,,,1,3.3 kW,₹0 per unit,AC,1,5A/15A Socket,"['2W', '3W']"
REVBOLT_004865,REVOS,REVOS,"c252 ,dada Dev comply sec.7 dwarka",28.5831215,77.07573261,New Delhi,India,00:00:00,00:00:00,https://ev.delhitransport.in/static/logo/revos.png,Unstaffed,UPI,"[""+918750689712""]",charging,110077,south-west-delhi,,1,3.3 kW,₹0 per unit,AC,1,5A/15A Socket,"['2W', '3W']"
REVBOLT_004439,REVOS,REVOS,"Shpo no 143 135 DDA  indra Markit old seema puri 
delhi95",28.68038939,77.3269359,Delhi,India,00:00:00,00:00:00,https://ev.delhitransport.in/static/logo/revos.png,Unstaffed,UPI,"[""+918076055387""]",charging,110093,east-delhi,,1,3.3 kW,₹0 per unit,AC,1,5A/15A Socket,"['2W', '3W']"
REVBOLT_005947,REVOS,REVOS,WZ  879 G/F  KH  NO 33/25 Palam Extn Near Swagat Bharat NewDelhi,28.58551358,77.07506407,New Delhi,India,00:00:00,00:00:00,https://ev.delhitransport.in/static/logo/revos.png,Unstaffed,UPI,"[""+919891953042""]",charging,110075,south-west-delhi,,1,3.3 kW,₹0 per unit,AC,1,5A/15A Socket,"['2W', '3W']"
REVBOLT_003842,REVOS,REVOS,Dwarka sce 7 Near Dada dev colony Delhi 110075,28.58375448,77.07551301,New Delhi,India,00:00:00,00:00:00,https://ev.delhitransport.in/static/logo/revos.png,Unstaffed,UPI,"[""+919560607929""]",charging,110077,south-west-delhi,,1,3.3 kW,₹0 per unit,AC,1,5A/15A Socket,"['2W', '3W']"
REVBOLT_003844,REVOS,REVOS,V.K Auto Spear parts  Railway Line  Road. Pipal Wali Gali. Raj Nagar  -part  2,28.58025651,77.08780691,New Delhi,India,00:00:00,00:00:00,https://ev.delhitransport.in/static/logo/revos.png,Unstaffed,UPI,"[""+919582272974""]",charging,110045,south-west-delhi,,1,3.3 kW,₹0 per unit,AC,1,5A/15A Socket,"['2W', '3W']"
REVBOLT_00011521,REVOS,REVOS,B 220 gali no.8 prem nagar 2 gaurav nagar anand nagar kirari suleman nagar delhi,28.70018005,77.05477905,New Delhi,India,00:00:00,00:00:00,https://ev.delhitransport.in/static/logo/revos.png,Unstaffed,UPI,"[""+918368432160""]",charging,110086,north-west-delhi,,1,3.3 kW,₹0 per unit,AC,1,5A/15A Socket,"['2W', '3W']"
REVBOLT_00006152,REVOS,REVOS,"B9/177,sector-5, rohini ,delhi-85",28.71510315,77.10803986,New Delhi,India,00:00:00,00:00:00,https://ev.delhitransport.in/static/logo/revos.png,Unstaffed,UPI,"[""+919250393541""]",charging,110085,north-delhi,,1,3.3 kW,₹0 per unit,AC,1,5A/15A Socket,"['2W', '3W']"
REVBOLT_005983,REVOS,REVOS,k494 johri enclave Metro Station Loni road gzb,28.71316248,77.28986811,Delhi,India,00:00:00,00:00:00,https://ev.delhitransport.in/static/logo/revos.png,Unstaffed,UPI,"[""+918954904272""]",charging,201102,,,1,3.3 kW,₹0 per unit,AC,1,5A/15A Socket,"['2W', '3W']"
REVBOLT_005951,REVOS,REVOS,Wheel Cart Palam metro station ke Samne,28.58826184,77.08286226,Delhi,India,00:00:00,00:00:00,https://ev.delhitransport.in/static/logo/revos.png,Unstaffed,UPI,"[""+919311170659""]",charging,110045,south-west-delhi,,1,3.3 kW,₹0 per unit,AC,1,5A/15A Socket,"['2W', '3W']"
REVBOLT_003248,REVOS,REVOS,Mahesh auto service center WZ 907,28.58673007,77.07741737,New Delhi,India,00:00:00,00:00:00,https://ev.delhitransport.in/static/logo/revos.png,Unstaffed,UPI,"[""+919990014434""]",charging,110075,south-west-delhi,,1,3.3 kW,₹0 per unit,AC,1,5A/15A Socket,"['2W', '3W']"
REVBOLT_00011627,REVOS,REVOS,Rz 134 B Block New Gopal Nagar Najafgarh new delhi,28.60561026,76.96794871,New Delhi,India,00:00:00,00:00:00,https://ev.delhitransport.in/static/logo/revos.png,Unstaffed,UPI,"[""+919716812093""]",charging,110043,south-west-delhi,,1,3.3 kW,₹0 per unit,AC,1,5A/15A Socket,"['2W', '3W']"
REVBOLT_00011514,REVOS,REVOS,n block gurdwara dera dukh niwaran raghubir nagar near bus stand 912 new delhi 27,28.65932465,77.11187744,New Delhi,India,00:00:00,00:00:00,https://ev.delhitransport.in/static/logo/revos.png,Unstaffed,UPI,"[""+919871530683""]",charging,110027,west-delhi,,1,3.3 kW,₹0 per unit,AC,1,5A/15A Socket,"['2W', '3W']"
REVBOLT_00007158,REVOS,REVOS,"c9, panchsheel vihar",28.53429633,77.21930254,New Delhi,India,00:00:00,00:00:00,https://ev.delhitransport.in/static/logo/revos.png,Unstaffed,UPI,"[""+919999026617""]",charging,110017,south-delhi,,1,3.3 kW,₹0 per unit,AC,1,5A/15A Socket,"['2W', '3W']"
REVBOLT_00011959,REVOS,REVOS,"161 joga bai ,
Main road,
opp. Go mobile
zakir nagar
new Delhi",28.56640098,77.28261374,New Delhi,India,00:00:00,00:00:00,https://ev.delhitransport.in/static/logo/revos.png,Unstaffed,UPI,"[""+919990068177""]",charging,110025,south-delhi,,1,3.3 kW,₹0 per unit,AC,1,5A/15A Socket,"['2W', '3W']"
REVBOLT_005946,REVOS,REVOS,d-9 gf devkunj vill palam near JJ colony new delhi 110045,28.58516,77.07723901,New Delhi,India,00:00:00,00:00:00,https://ev.delhitransport.in/static/logo/revos.png,Unstaffed,UPI,"[""+919667374322""]",charging,110077,south-west-delhi,,1,3.3 kW,₹0 per unit,AC,1,5A/15A Socket,"['2W', '3W']"
REVBOLT_005925,REVOS,REVOS,d-9 gf devkunj vill palam near JJ colony new delhi 110045,28.58519474,77.077181,New Delhi,India,00:00:00,00:00:00,https://ev.delhitransport.in/static/logo/revos.png,Unstaffed,UPI,"[""+919667374322""]",charging,110077,south-west-delhi,,1,3.3 kW,₹0 per unit,AC,1,5A/15A Socket,"['2W', '3W']"
REVBOLT_005968,REVOS,REVOS,h.no 120 main nala road shiv vihar krawal nagar,28.71819736,77.27984201,New Delhi,India,00:00:00,00:00:00,https://ev.delhitransport.in/static/logo/revos.png,Unstaffed,UPI,"[""+917291896184""]",charging,110090,east-delhi,,1,3.3 kW,₹0 per unit,AC,1,5A/15A Socket,"['2W', '3W']"
REVBOLT_005985,REVOS,REVOS,h.no 120 main nala road shiv vihar krawal nagar,28.71820324,77.27975316,New Delhi,India,00:00:00,00:00:00,https://ev.delhitransport.in/static/logo/revos.png,Unstaffed,UPI,"[""+917291896184""]",charging,110090,east-delhi,,1,3.3 kW,₹0 per unit,AC,1,5A/15A Socket,"['2W', '3W']"
REVBOLT_00011902,REVOS,REVOS,D-251 Mangla puri village main road palam colony,28.58785056,77.08646044,New Delhi,India,00:00:00,00:00:00,https://ev.delhitransport.in/static/logo/revos.png,Unstaffed,UPI,"[""+919599316015""]",charging,110045,south-west-delhi,,1,3.3 kW,₹0 per unit,AC,1,5A/15A Socket,"['2W', '3W']"
REVBOLT_005972,REVOS,REVOS,c-1/220 new kondli near R K tower,28.60543895,77.33382918,New Delhi,India,00:00:00,00:00:00,https://ev.delhitransport.in/static/logo/revos.png,Unstaffed,UPI,"[""+19289673719""]",charging,110096,east-delhi,,1,3.3 kW,₹0 per unit,AC,1,5A/15A Socket,"['2W', '3W']"
REVBOLT_00011136,REVOS,REVOS,"plott 161, amberhai extension",28.57662034,77.04787821,New Delhi,India,00:00:00,00:00:00,https://ev.delhitransport.in/static/logo/revos.png,Unstaffed,UPI,"[""+918375085327""]",charging,110075,south-west-delhi,,1,3.3 kW,₹0 per unit,AC,1,5A/15A Socket,"['2W', '3W']"
REVBOLT_005996,REVOS,REVOS,"c-1/220 new kondli near R,K g tower Delhi4",28.60546132,77.33389691,New Delhi,India,00:00:00,00:00:00,https://ev.delhitransport.in/static/logo/revos.png,Unstaffed,UPI,"[""+19289673719""]",charging,110096,east-delhi,,1,3.3 kW,₹0 per unit,AC,1,5A/15A Socket,"['2W', '3W']"
REVBOLT_005869,REVOS,REVOS,Rz20 e/4 Raj nagar part 1 palam colony near nirankari bhawan New delhi,28.58302581,77.08792258,New Delhi,India,00:00:00,00:00:00,https://ev.delhitransport.in/static/logo/revos.png,Unstaffed,UPI,"[""9650257001""]",charging,110045,south-west-delhi,,1,3.3 kW,₹0 per unit,AC,1,5A/15A Socket,"['2W', '3W']"
